[{"lat": 50.20838579999999, "name": "St Ives", "lng": -5.490886400000001}, {"lat": 50.185467, "name": "Hayle", "lng": -5.42091}, {"lat": 50.260642, "name": "Portreath", "lng": -5.288665}, {"lat": 50.41549699999999, "name": "Newquay", "lng": -5.073719}, {"lat": 50.54206199999999, "name": "Padstow", "lng": -4.939017}, {"lat": 50.59382000000001, "name": "Port Isaac", "lng": -4.829978}, {"lat": 50.68691399999999, "name": "Boscastle", "lng": -4.692832}, {"lat": 50.826636, "name": "Bude", "lng": -4.543678}, {"lat": 50.9981276, "name": "Clovelly", "lng": -4.3991182}, {"lat": 51.016684, "name": "Bideford", "lng": -4.206666}, {"lat": 51.053778, "name": "Appledore", "lng": -4.193055999999999}, {"lat": 51.205163, "name": "Ilfracombe", "lng": -4.126761999999999}, {"lat": 51.214707, "name": "Watermouth", "lng": -4.068716999999999}, {"lat": 51.2295747, "name": "Lynmouth", "lng": -3.8291697}, {"lat": 51.221964, "name": "Porlock Weir", "lng": -3.631459999999999}, {"lat": 51.20428, "name": "Minehead", "lng": -3.481152}, {"lat": 51.181769, "name": "Watchet", "lng": -3.329177}, {"lat": 51.173384, "name": "Combwick", "lng": -3.063262}, {"lat": 55.0079666, "name": "Bridgewater", "lng": -7.280591100000001}, {"lat": 51.3228409, "name": "Uphill", "lng": -2.977583}, {"lat": 51.0117308, "name": "Knightstone", "lng": -3.0416556}, {"lat": 51.454513, "name": "Bristol", "lng": -2.58791}, {"lat": 51.7236003, "name": "Sharpness", "lng": -2.4674595}, {"lat": 51.72913, "name": "Lydney", "lng": -2.530504}, {"lat": 51.584151, "name": "Newport", "lng": -2.997664}, {"lat": 51.48158100000001, "name": "Cardiff", "lng": -3.17909}, {"lat": 51.438798, "name": "Penarth", "lng": -3.173507}, {"lat": 52.4758101, "name": "Barrty", "lng": 1.7546152}, {"lat": 51.47896799999999, "name": "Porthcawl", "lng": -3.705163}, {"lat": 51.5946799, "name": "Port Talbot", "lng": -3.784097}, {"lat": 51.6045885, "name": "Briton", "lng": -3.815135}, {"lat": 51.62144, "name": "Sawnsea", "lng": -3.943645999999999}, {"lat": 51.59002599999999, "name": "Burry Point", "lng": -4.228153}, {"lat": 51.70937900000001, "name": "Saudersfoot", "lng": -4.699726}, {"lat": 51.672738, "name": "Tenby", "lng": -4.703579}, {"lat": 51.6417065, "name": "Stackpole Quay", "lng": -4.874787299999999}, {"lat": 51.674043, "name": "Pembroke", "lng": -4.908637}, {"lat": 51.714306, "name": "Milford Haven", "lng": -5.042697}, {"lat": 50.72316199999999, "name": "Martin\u2019s Haven", "lng": -2.0338616}, {"lat": 51.8739786, "name": "Solva", "lng": -5.1953135}, {"lat": 51.95891899999999, "name": "Porthgain Abercastle", "lng": -5.125257}, {"lat": 51.993927, "name": "Fishguard", "lng": -4.975989000000001}, {"lat": 51.995165, "name": "Lower Fishguard", "lng": -4.968089}, {"lat": 52.21553600000001, "name": "New Quay", "lng": -4.359081}, {"lat": 52.242793, "name": "Aberaeron", "lng": -4.2581619}, {"lat": 52.41530299999999, "name": "Aberystwyth", "lng": -4.08292}, {"lat": 52.543963, "name": "Aberdyfi", "lng": -4.046093}, {"lat": 53.2948359, "name": "Pensarn", "lng": -3.578062}, {"lat": 52.927842, "name": "Porthmadog", "lng": -4.133384}, {"lat": 52.914931, "name": "Borth-Y-Gest", "lng": -4.136272}, {"lat": 52.888816, "name": "Pwllheli", "lng": -4.4176339}, {"lat": 52.824497, "name": "Abersoch", "lng": -4.5053599}, {"lat": 52.80472899999999, "name": "Abardaron", "lng": -4.711514999999999}, {"lat": 52.942939, "name": "Porth Dinllaen", "lng": -4.567633}, {"lat": 52.9356549, "name": "Nefyn", "lng": -4.520111}, {"lat": 52.992992, "name": "Trefor", "lng": -4.427481}, {"lat": 52.6384617, "name": "Belan", "lng": -3.1600265}, {"lat": 53.139551, "name": "Caernarfon", "lng": -4.273911}, {"lat": 53.1393735, "name": "Port Dinorwic", "lng": -4.2681939}, {"lat": 53.2329758, "name": "Port Penrhyn", "lng": -4.1095952}, {"lat": 53.282872, "name": "Conwy", "lng": -3.82948}, {"lat": 53.3080507, "name": "Rhos-on-Sea", "lng": -3.7499412}, {"lat": 53.287553, "name": "Llanddulas", "lng": -3.642969}, {"lat": 53.31914099999999, "name": "Rhyl", "lng": -3.491634}, {"lat": 53.31297989999999, "name": "Mostyn", "lng": -3.2692784}, {"lat": 53.2905029, "name": "Greenfield Dock", "lng": -3.2062291}, {"lat": 53.22006039999999, "name": "Connah\u2019s Quay", "lng": -3.0589149}, {"lat": 53.38999099999999, "name": "Birkenhead", "lng": -3.023009}, {"lat": 53.3321915, "name": "Bromborough", "lng": -2.9772937}, {"lat": 51.681598, "name": "Garston", "lng": -0.391206}, {"lat": 53.4083714, "name": "Liverpool", "lng": -2.9915726}, {"lat": 53.916661, "name": "Fleetwood", "lng": -3.035673}, {"lat": 53.926205, "name": "Knott End", "lng": -2.975911}, {"lat": 53.997847, "name": "Glasson Dock", "lng": -2.850347}, {"lat": 54.04199, "name": "Heysham", "lng": -2.894475}, {"lat": 54.108967, "name": "Barrow-in-Furness", "lng": -3.218894}, {"lat": 54.212073, "name": "Millom", "lng": -3.272847}, {"lat": 54.549699, "name": "Whitehaven", "lng": -3.589233}, {"lat": 52.412133, "name": "Harrington", "lng": -0.865671}, {"lat": 54.643569, "name": "Workington", "lng": -3.542752}, {"lat": 54.714441, "name": "Maryport", "lng": -3.49494}, {"lat": 54.868394, "name": "Silloth", "lng": -3.389471}, {"lat": 54.990246, "name": "Annan", "lng": -3.259773}, {"lat": 55.002672, "name": "Glencaple", "lng": -3.572666}, {"lat": 55.046194, "name": "Kingholm Quay", "lng": -3.6034317}, {"lat": 54.88005099999999, "name": "Kippford", "lng": -3.814892}, {"lat": 54.83756899999999, "name": "Kircudbright", "lng": -4.04878}, {"lat": 54.823019, "name": "Knockbrex", "lng": -4.200529}, {"lat": 55.59754419999999, "name": "Garieston", "lng": -4.5183137}, {"lat": 54.73483599999999, "name": "Whithorn", "lng": -4.414893}, {"lat": 54.759602, "name": "Port William", "lng": -4.582727}, {"lat": 55.438891, "name": "Drunmore", "lng": -5.626049999999999}, {"lat": 54.723977, "name": "Port Logan", "lng": -4.956053}, {"lat": 54.84279, "name": "Portpatrick", "lng": -5.116057}, {"lat": 54.903367, "name": "Stranraer", "lng": -5.024055}, {"lat": 54.976479, "name": "Cirnryan", "lng": -5.0268868}, {"lat": 55.098617, "name": "Ballantrae", "lng": -5.001455}, {"lat": 55.240164, "name": "Girvan", "lng": -4.854217999999999}, {"lat": 55.333113, "name": "Maidens", "lng": -4.818632}, {"lat": 55.406937, "name": "Dunure", "lng": -4.757339}, {"lat": 55.458564, "name": "Ayr", "lng": -4.629179000000001}, {"lat": 55.541332, "name": "Troon", "lng": -4.659948}, {"lat": 55.61156690000001, "name": "Irvine", "lng": -4.6696364}, {"lat": 55.637652, "name": "Saltcoats", "lng": -4.7834899}, {"lat": 55.64388899999999, "name": "Ardrossan", "lng": -4.81182}, {"lat": 55.7, "name": "Portencross", "lng": -4.899999999999999}, {"lat": 55.7233313, "name": "Hunterston", "lng": -4.8983287}, {"lat": 55.79333500000001, "name": "Largs", "lng": -4.867278000000001}, {"lat": 55.8913375, "name": "Weymess Bay", "lng": -4.889574}, {"lat": 55.932291, "name": "Port Glasgow", "lng": -4.679806999999999}, {"lat": 55.95647599999999, "name": "Grenock", "lng": -4.771983}, {"lat": 56.002318, "name": "Helnburgh", "lng": -4.734014}, {"lat": 56.067455, "name": "Faslane", "lng": -4.8155789}, {"lat": 56.00995, "name": "Rasneath", "lng": -4.801394}, {"lat": 55.985505, "name": "Kilcreggan", "lng": -4.824147}, {"lat": 57.102949, "name": "Cove", "lng": -2.082979}, {"lat": 56.045251, "name": "Coulport", "lng": -4.869738}, {"lat": 56.6815017, "name": "Finnart", "lng": -4.4221355}, {"lat": 56.1263988, "name": "Glenmallan", "lng": -4.8175798}, {"lat": 56.001606, "name": "Blairmore", "lng": -4.899566}, {"lat": 55.9937062, "name": "Kilmun", "lng": -4.9342885}, {"lat": 55.970721, "name": "Hunter\u2019s Quay", "lng": -4.91158}, {"lat": 55.950973, "name": "Dunoon", "lng": -4.926214}, {"lat": 55.92186299999999, "name": "Colintraive", "lng": -5.145398}, {"lat": 55.9069394, "name": "Tighnabruaich", "lng": -5.2329104}, {"lat": 55.87354699999999, "name": "Portavadie", "lng": -5.31034}, {"lat": 56.00832699999999, "name": "Otter Ferry", "lng": -5.321207999999999}, {"lat": 56.010917, "name": "Ardishaig", "lng": -5.450042}, {"lat": 55.863246, "name": "Tarbert", "lng": -5.415608}, {"lat": 55.7571583, "name": "Claonaig", "lng": -5.3931986}, {"lat": 55.591379, "name": "Carradale", "lng": -5.4683}, {"lat": 55.4310256, "name": "Dalimtober", "lng": -5.601535399999999}, {"lat": 55.424117, "name": "Campbeltown", "lng": -5.605373999999999}, {"lat": 55.652587, "name": "Tayinloan", "lng": -5.662299}, {"lat": 55.80340930000001, "name": "Kennacraig", "lng": -5.473433399999999}, {"lat": 56.1176074, "name": "West Talbert", "lng": -3.1564243}, {"lat": 55.840008, "name": "Keillbeg", "lng": -6.129262}, {"lat": 56.024944, "name": "Tayvallich", "lng": -5.627589}, {"lat": 56.090766, "name": "Crinan", "lng": -5.558376}, {"lat": 56.18136, "name": "Ardfern", "lng": -5.538355999999999}, {"lat": 56.235844, "name": "Arduaine", "lng": -5.553036}, {"lat": 56.269289, "name": "Melfort", "lng": -5.494663}, {"lat": 56.290418, "name": "Balvicar", "lng": -5.610461}, {"lat": 56.216925, "name": "Toberonchy", "lng": -5.631715}, {"lat": 56.255641, "name": "Cullipool", "lng": -5.65334}, {"lat": 56.237303, "name": "Luing", "lng": -5.639845900000001}, {"lat": 56.294525, "name": "Ellenabeich", "lng": -5.650464899999999}, {"lat": 56.415157, "name": "Oban", "lng": -5.471047}, {"lat": 56.52044600000001, "name": "Barcaldine", "lng": -5.3139514}, {"lat": 56.553917, "name": "PortAppin", "lng": -5.408119999999999}, {"lat": 56.57059, "name": "Portnacroish", "lng": -5.375926000000001}, {"lat": 56.66366, "name": "Kentallen", "lng": -5.251895}, {"lat": 56.68255989999999, "name": "Glencoe", "lng": -5.1022713}, {"lat": 56.81981700000001, "name": "Fort William", "lng": -5.105218}, {"lat": 57.8507, "name": "Camusnagaul", "lng": -5.263107}, {"lat": 52.1387317, "name": "Ardour", "lng": -0.4667844}, {"lat": 56.5626311, "name": "Glensanda", "lng": -5.5480111}, {"lat": 56.53486299999999, "name": "Lochaline", "lng": -5.777343}, {"lat": 56.61371, "name": "Drimnin", "lng": -5.985857999999999}, {"lat": 51.455854, "name": "West Harbor", "lng": -0.2050043}, {"lat": 56.69538799999999, "name": "Strontian", "lng": -5.571178}, {"lat": 56.51658, "name": "Salen", "lng": -5.946121}, {"lat": 56.680208, "name": "Laga", "lng": -5.869180999999999}, {"lat": 56.697686, "name": "Kilchoan", "lng": -6.113414}, {"lat": 56.7614161, "name": "Kentra Bay", "lng": -5.8775916}, {"lat": 56.827595, "name": "Glenuig", "lng": -5.817474}, {"lat": 56.878871, "name": "Lochailort", "lng": -5.665675999999999}, {"lat": 56.910099, "name": "Arisaig", "lng": -5.842724599999999}, {"lat": 57.00381300000001, "name": "Mllaig", "lng": -5.827173}, {"lat": 57.01193809999999, "name": "Mallaigmore", "lng": -5.7920902}, {"lat": 56.20399699999999, "name": "Tarbet", "lng": -4.712503}, {"lat": 57.002731, "name": "Camusrory", "lng": -5.531219}, {"lat": 57.036675, "name": "Inverie", "lng": -5.681573}, {"lat": 51.8179489, "name": "Dourne", "lng": -0.0367679}, {"lat": 57.081446, "name": "Airor", "lng": -5.768491}, {"lat": 57.134398, "name": "Arnisdale", "lng": -5.566164}, {"lat": 50.85802229999999, "name": "Gleneig", "lng": -1.1969771}, {"lat": 57.2791, "name": "Dornie", "lng": -5.5155414}, {"lat": 57.272469, "name": "Kyleakin", "lng": -5.728813}, {"lat": 57.2826065, "name": "Kyle of Lochalsh", "lng": -5.7143293}, {"lat": 57.3406167, "name": "Plokton", "lng": -5.6490887}, {"lat": 57.35244400000001, "name": "Stromeferr South", "lng": -5.551392}, {"lat": 57.396503, "name": "Ardarroch", "lng": -5.602889999999999}, {"lat": 56.2187277, "name": "Kishorn", "lng": -3.1831514}, {"lat": 57.378325, "name": "Toscaig", "lng": -5.809679}, {"lat": 57.4319012, "name": "Applecross", "lng": -5.809727}, {"lat": 57.52234199999999, "name": "Shieldaig", "lng": -5.650586}, {"lat": 57.5493711, "name": "Fasag", "lng": -5.5144364}, {"lat": 57.55692999999999, "name": "Inveralligin", "lng": -5.60422}, {"lat": 57.58270899999999, "name": "Diabaig", "lng": -5.692513}, {"lat": 57.696686, "name": "Badachro", "lng": -5.724462}, {"lat": 57.72822000000001, "name": "Gairloch", "lng": -5.693912}, {"lat": 57.813843, "name": "Inverasdale", "lng": -5.671385}, {"lat": 57.840797, "name": "Aultbea", "lng": -5.587333}, {"lat": 57.8647, "name": "Laide", "lng": -5.542584}, {"lat": 57.894609, "name": "Badluarach", "lng": -5.389823}, {"lat": 57.91173299999999, "name": "Scoraig", "lng": -5.377317}, {"lat": 57.88686269999999, "name": "Alnaharrie", "lng": -5.1804386}, {"lat": 57.86742400000001, "name": "Leckmelm", "lng": -5.094952}, {"lat": 57.895418, "name": "Ullapool", "lng": -5.161313}, {"lat": 57.93406900000001, "name": "Ardmair", "lng": -5.196189}, {"lat": 58.02480999999999, "name": "Achiltibuie", "lng": -5.352271}, {"lat": 58.0368602, "name": "Old Dornie", "lng": -5.4078032}, {"lat": 58.07030700000001, "name": "Reiff", "lng": -5.448667899999999}, {"lat": 58.1466612, "name": "Lochinver", "lng": -5.239685499999999}, {"lat": 58.24288000000001, "name": "Culkein", "lng": -5.344998}, {"lat": 58.24321099999999, "name": "Drumbeg", "lng": -5.202242}, {"lat": 58.25585599999999, "name": "Kylasku", "lng": -5.018689999999999}, {"lat": 58.35177259999999, "name": "Scourie", "lng": -5.152063399999999}, {"lat": 56.20399699999999, "name": "Tarbet", "lng": -4.712503}, {"lat": 58.397351, "name": "Fanagmore", "lng": -5.121554}, {"lat": 58.3957343, "name": "Loch Laxford", "lng": -5.0683923}, {"lat": 58.458818, "name": "Kinlochbervie", "lng": -5.049151999999999}, {"lat": 58.4611664, "name": "Loch Clash", "lng": -5.0598298}, {"lat": 55.8835187, "name": "Droman", "lng": -3.117092}, {"lat": 58.5529375, "name": "Keodale East", "lng": -4.7816966}, {"lat": 58.54913469999999, "name": "Rispond", "lng": -4.662609499999999}, {"lat": 58.5026534, "name": "Portnancon", "lng": -4.7012565}, {"lat": 58.531724, "name": "Talmine", "lng": -4.432752}, {"lat": 58.539835, "name": "Lamingo Bay", "lng": -4.3201306}, {"lat": 58.525222, "name": "Bettyhill", "lng": -4.222343}, {"lat": 58.54153099999999, "name": "Kirtomy", "lng": -4.158088}, {"lat": 55.9416626, "name": "Port Grant", "lng": -4.7360273}, {"lat": 58.56402699999999, "name": "Portskerra", "lng": -3.93365}, {"lat": 53.3918703, "name": "Sansdie", "lng": -3.0667623}, {"lat": 58.61102599999999, "name": "Scarbster", "lng": -3.552627}, {"lat": 58.62295100000001, "name": "Dwarwick", "lng": -3.3405405}, {"lat": 58.593566, "name": "Thurso", "lng": -3.52208}, {"lat": 58.2408, "name": "Castlehill", "lng": -3.440121}, {"lat": 58.62295100000001, "name": "Dwarwick", "lng": -3.3405405}, {"lat": 53.729988, "name": "Brough", "lng": -0.5732149999999999}, {"lat": 58.649309, "name": "Scarfskerry", "lng": -3.272971}, {"lat": 51.580559, "name": "Harrow", "lng": -0.341995}, {"lat": 58.6433361, "name": "Gill\u2019s Bay", "lng": -3.148934}, {"lat": 58.641724, "name": "Huna", "lng": -3.101782}, {"lat": 58.6373368, "name": "John O Groats", "lng": -3.0688997}, {"lat": 58.641724, "name": "Huna", "lng": -3.101782}, {"lat": 58.599051, "name": "Skirza", "lng": -3.0587369}, {"lat": 58.56863199999999, "name": "Auckengill", "lng": -3.10085}, {"lat": 58.45415099999999, "name": "Staxigoe", "lng": -3.059185}, {"lat": 58.438936, "name": "Wick", "lng": -3.093716}, {"lat": 58.304216, "name": "Lybster", "lng": -3.285232}, {"lat": 58.274768, "name": "Latheronwheel", "lng": -3.382873}, {"lat": 58.250685, "name": "Dunbeath", "lng": -3.433149}, {"lat": 55.56635840000001, "name": "Berridale", "lng": -4.6551465}, {"lat": 58.11726099999999, "name": "Helmsdale", "lng": -3.653533}, {"lat": 58.01215699999999, "name": "Brora", "lng": -3.852548}, {"lat": 57.973406, "name": "Golspie", "lng": -3.976086}, {"lat": 57.933848, "name": "Littleferry", "lng": -4.0186019}, {"lat": 57.90876300000001, "name": "Embo", "lng": -3.999339}, {"lat": 57.858269, "name": "Meikie Ferry", "lng": -4.143667}, {"lat": 57.8360236, "name": "Portmahomack", "lng": -3.8222476}, {"lat": 51.8272369, "name": "Rockfield", "lng": -2.751344}, {"lat": 52.871, "name": "Hilton", "lng": -1.637}, {"lat": 57.75613200000001, "name": "Balintore", "lng": -3.90923}, {"lat": 57.717838, "name": "Nigg", "lng": -4.007803}, {"lat": 57.688106, "name": "Invergordon", "lng": -4.172882}, {"lat": 57.670196, "name": "Balblair", "lng": -4.17749}, {"lat": 57.680609, "name": "Cromarty", "lng": -4.034678}, {"lat": 55.8728213, "name": "Portrose", "lng": -4.3077711}, {"lat": 57.566687, "name": "Avoch", "lng": -4.174666999999999}, {"lat": 57.477773, "name": "Inverness", "lng": -4.224721}, {"lat": 57.58642200000001, "name": "Nairn", "lng": -3.868475}, {"lat": 57.65900000000001, "name": "Findhorn", "lng": -3.610999999999999}, {"lat": 57.700232, "name": "Burghead", "lng": -3.489213}, {"lat": 57.70624999999999, "name": "Hopeman", "lng": -3.434834}, {"lat": 57.72157899999999, "name": "Lossiemouth", "lng": -3.280325}, {"lat": 57.67739199999999, "name": "Buckie", "lng": -2.967311}, {"lat": 57.66356599999999, "name": "Portgordon", "lng": -3.015018}, {"lat": 57.703032, "name": "Portkanckie", "lng": -2.859311}, {"lat": 57.6830367, "name": "Culles", "lng": -2.6942304}, {"lat": 57.684963, "name": "Sandend", "lng": -2.747948}, {"lat": 57.681023, "name": "Portsoy", "lng": -2.688412}, {"lat": 57.676859, "name": "Whitehills", "lng": -2.580352}, {"lat": 57.666505, "name": "Banff", "lng": -2.524038}, {"lat": 57.672227, "name": "Gardenstown", "lng": -2.337199}, {"lat": 57.67058999999999, "name": "Macduff", "lng": -2.497849}, {"lat": 57.67900110000001, "name": "Crovie", "lng": -2.3238276}, {"lat": 57.67744700000001, "name": "Pennan", "lng": -2.259966}, {"lat": 57.695531, "name": "Rosehaerty", "lng": -2.118062}, {"lat": 57.69642700000001, "name": "Sandhaven", "lng": -2.062227}, {"lat": 57.693352, "name": "Fraserburgh", "lng": -2.007631}, {"lat": 57.677271, "name": "Cairnbulg", "lng": -1.936912}, {"lat": 57.50812299999999, "name": "Peterhead", "lng": -1.784066}, {"lat": 57.513218, "name": "Buchanhaven", "lng": -1.789512}, {"lat": 57.470373, "name": "Boddam", "lng": -1.779524}, {"lat": 57.41366899999999, "name": "Port Erroll", "lng": -1.846107}, {"lat": 57.34591599999999, "name": "Collieston", "lng": -1.938273}, {"lat": 57.149717, "name": "Aberdeen", "lng": -2.094278}, {"lat": 57.102949, "name": "Cove Bay", "lng": -2.082979}, {"lat": 56.96366099999999, "name": "Stonehaven", "lng": -2.209288}, {"lat": 56.894097, "name": "Catterline", "lng": -2.21828}, {"lat": 56.828687, "name": "Gourdon", "lng": -2.287441}, {"lat": 56.795146, "name": "Johnshaven", "lng": -2.335959}, {"lat": 56.706922, "name": "Montrose", "lng": -2.466115}, {"lat": 56.7003999, "name": "Usan", "lng": -2.4647834}, {"lat": 56.588963, "name": "Auchmithie", "lng": -2.522745}, {"lat": 56.559107, "name": "Arbroath", "lng": -2.591543}, {"lat": 56.4742525, "name": "Broughty Ferry", "lng": -2.8665281}, {"lat": 56.462018, "name": "Dundee", "lng": -2.970721}, {"lat": 56.394994, "name": "Perth", "lng": -3.430838}, {"lat": 56.350582, "name": "Newburgh", "lng": -3.241471}, {"lat": 56.423663, "name": "Wormit", "lng": -2.981068}, {"lat": 56.440473, "name": "Newport-on-Tay", "lng": -2.940732}, {"lat": 56.447996, "name": "Tayport", "lng": -2.880912}, {"lat": 56.335054, "name": "St Andrews", "lng": -2.8063431}, {"lat": 51.3010059, "name": "Crall", "lng": -2.4723635}, {"lat": 56.22584999999999, "name": "Cellardyke", "lng": -2.688899}, {"lat": 56.22298000000001, "name": "Antruther", "lng": -2.700539}, {"lat": 56.214, "name": "Pittenweem", "lng": -2.732285}, {"lat": 56.204812, "name": "St Monans", "lng": -2.765718}, {"lat": 56.190472, "name": "Elie", "lng": -2.822051}, {"lat": 56.21366700000001, "name": "Lower Largo", "lng": -2.9395272}, {"lat": 56.184843, "name": "Methil", "lng": -3.0164019}, {"lat": 56.1399217, "name": "West Wemyss", "lng": -3.0862397}, {"lat": 56.127911, "name": "Dysart", "lng": -3.122933}, {"lat": 56.1168249, "name": "Kirkcaldy", "lng": -3.158137}, {"lat": 56.062641, "name": "Pettycur", "lng": -3.177638}, {"lat": 56.058809, "name": "Burntisland", "lng": -3.233915}, {"lat": 56.0259532, "name": "Carron", "lng": -3.7913557}, {"lat": 56.054679, "name": "Aberdour", "lng": -3.30273}, {"lat": 56.03490799999999, "name": "Dalgerty Bay", "lng": -3.35056}, {"lat": 56.030043, "name": "Inverkelthing", "lng": -3.398795}, {"lat": 56.0101001, "name": "North Queensferry", "lng": -3.3945959}, {"lat": 56.03646999999999, "name": "Rosyth", "lng": -3.423064}, {"lat": 56.0326065, "name": "Brucehaven", "lng": -3.479599}, {"lat": 56.23878, "name": "Limekiln", "lng": -3.2309943}, {"lat": 50.332907, "name": "Charlestown", "lng": -4.759194}, {"lat": 56.0097152, "name": "Grangemouth", "lng": -3.7227698}, {"lat": 56.002754, "name": "Blackness", "lng": -3.52281}, {"lat": 55.9929996, "name": "Port Edgar", "lng": -3.4073012}, {"lat": 55.99000299999999, "name": "South Queensferry", "lng": -3.399045}, {"lat": 55.9934018, "name": "LongCriag", "lng": -3.3732308}, {"lat": 55.9906704, "name": "Hawes Pier", "lng": -3.3852536}, {"lat": 55.375162, "name": "Cranmond Granton", "lng": -3.459761}, {"lat": 50.79307000000001, "name": "Newhaven", "lng": 0.045574}, {"lat": 55.975117, "name": "Leith", "lng": -3.166243}, {"lat": 51.7538755, "name": "Fisherrow", "lng": -1.2657146}, {"lat": 55.9703078, "name": "Port Seton", "lng": -2.9455236}, {"lat": 56.058363, "name": "North Berwick", "lng": -2.719646}, {"lat": 56.0227648, "name": "Seacliff", "lng": -5.4461374}, {"lat": 56.002087, "name": "Dunbar", "lng": -2.516737}, {"lat": 57.102949, "name": "Cove", "lng": -2.082979}, {"lat": 55.898921, "name": "St Abbs", "lng": -2.138515}, {"lat": 55.869058, "name": "Eyemouth", "lng": -2.091068}, {"lat": 50.7225242, "name": "Burnouth", "lng": -1.8897956}, {"lat": 55.770242, "name": "Berwick-upon-Tweed", "lng": -2.005395}, {"lat": 55.6807718, "name": "Lindesfarne", "lng": -1.800859}, {"lat": 55.581148, "name": "Seahouses", "lng": -1.651159}, {"lat": 55.5563446, "name": "Craster Beadnell", "lng": -1.6383807}, {"lat": 55.3902223, "name": "Alnmouth", "lng": -1.6129047}, {"lat": 55.331461, "name": "Amble", "lng": -1.585261}, {"lat": 54.486335, "name": "Whitby", "lng": -0.613347}, {"lat": 54.283113, "name": "Scarborough", "lng": -0.399752}, {"lat": 54.2116686, "name": "Filey Coble Landing", "lng": -0.2828801}, {"lat": 54.1100909, "name": "Flamborough Landing", "lng": -0.1634957}, {"lat": 54.08535, "name": "Bridlington", "lng": -0.198802}, {"lat": 53.78352400000001, "name": "Selby", "lng": -1.067189}, {"lat": 53.745894, "name": "Howden", "lng": -0.868877}, {"lat": 53.702941, "name": "Goole", "lng": -0.876381}, {"lat": 53.59669299999999, "name": "Keadby", "lng": -0.73951}, {"lat": 53.400575, "name": "Gainsborough", "lng": -0.774465}, {"lat": 53.59125, "name": "Gunness", "lng": -0.729656}, {"lat": 53.6057633, "name": "Grove Wharf", "lng": -0.7182782}, {"lat": 53.608683, "name": "Neap House", "lng": -0.7011379999999999}, {"lat": 53.625194, "name": "Flixborough", "lng": -0.6850229999999999}, {"lat": 53.649532, "name": "Burton-upon-Stather", "lng": -0.684465}, {"lat": 53.693394, "name": "Barrow Haven", "lng": -0.392823}, {"lat": 53.6960124, "name": "Barton Haven", "lng": -0.4436596}, {"lat": 53.614012, "name": "Immingham", "lng": -0.215913}, {"lat": 53.567471, "name": "Grimsby", "lng": -0.080784}, {"lat": 53.1060375, "name": "Wainfleet Haven", "lng": 0.2426182}, {"lat": 52.7516798, "name": "King\u2019s Lyn", "lng": 0.4022963000000001}, {"lat": 52.96076499999999, "name": "Thornham", "lng": 0.580857}, {"lat": 52.96243699999999, "name": "Brancaster", "lng": 0.638894}, {"lat": 52.9629529, "name": "Burnham Overy", "lng": 0.7532451}, {"lat": 52.7699923, "name": "Stithe", "lng": 1.5172868}, {"lat": 52.9636974, "name": "Staith Wels", "lng": 0.7429509999999999}, {"lat": 52.95570379999999, "name": "Morston Quay", "lng": 1.0163097}, {"lat": 52.953685, "name": "Blakney", "lng": 1.014356}, {"lat": 52.598233, "name": "Great Yarmouth", "lng": 1.728047}, {"lat": 52.48113799999999, "name": "Lowestoft", "lng": 1.753449}, {"lat": 52.32562799999999, "name": "Southwold", "lng": 1.680181}, {"lat": 52.314994, "name": "Walberswick", "lng": 1.661398}, {"lat": 52.1432373, "name": "Slaughden Quay", "lng": 1.5994146}, {"lat": 52.0947402, "name": "Orford", "lng": 1.5341196}, {"lat": 52.0294, "name": "Ramsholt", "lng": 1.361564}, {"lat": 52.012223, "name": "Bawdsey", "lng": 1.417586}, {"lat": 51.961726, "name": "Felixstowe", "lng": 1.351255}, {"lat": 51.94562500000001, "name": "Mistley", "lng": 1.0773489}, {"lat": 51.9742291, "name": "Ipswitch", "lng": 0.9866478999999999}, {"lat": 51.934731, "name": "Harwich", "lng": 1.260297}, {"lat": 51.816142, "name": "Brightlingsea", "lng": 1.021399}, {"lat": 51.857997, "name": "Wivenhoe", "lng": 0.9652740000000001}, {"lat": 51.84374099999999, "name": "Fingringhoe", "lng": 0.9450000000000001}, {"lat": 51.73180499999999, "name": "Maldon", "lng": 0.6714479999999999}, {"lat": 51.628347, "name": "Burnham-on-Crouch", "lng": 0.814539}, {"lat": 51.582071, "name": "Rochford", "lng": 0.706515}, {"lat": 51.5474028, "name": "Leigh-on-Sea", "lng": 0.6472768999999999}, {"lat": 51.463024, "name": "Tilbury", "lng": 0.360498}, {"lat": 51.48671059999999, "name": "Purfleet", "lng": 0.2433122}, {"lat": 51.5073509, "name": "London", "lng": -0.1277583}]