[{"lat": 50.084245, "lng": -5.539061999999999, "name": "Mousehole"}, {"lat": 50.10705799999999, "lng": -5.550328899999999, "name": "Newlyn"}, {"lat": 50.118798, "lng": -5.537592, "name": "Penzance"}, {"lat": 50.125077, "lng": -5.463954999999999, "name": "Marazion"}, {"lat": 48.636063, "lng": -1.511457, "name": "St Micheal\u2019s Mount"}, {"lat": 50.085305, "lng": -5.315853, "name": "Porthleven"}, {"lat": 50.0163732, "lng": -5.2550059, "name": "Mullion Cove"}, {"lat": 49.987834, "lng": -5.18169, "name": "Cadgwith"}, {"lat": 50.0243618, "lng": -5.0975682, "name": "Coverack"}, {"lat": 50.055567, "lng": -5.067445999999999, "name": "Porthoustock"}, {"lat": 50.0991999, "lng": -5.1127999, "name": "Helford"}, {"lat": 50.0967779, "lng": -5.208082099999999, "name": "Gweek"}, {"lat": 50.15257099999999, "lng": -5.066269999999999, "name": "Falmouth"}, {"lat": 33.08283249999999, "lng": -81.9686848, "name": "Place Creek"}, {"lat": 50.158551, "lng": -5.014632, "name": "St Mawes"}, {"lat": 50.17943289999999, "lng": -4.975047, "name": "Portscatho"}, {"lat": 50.219505, "lng": -4.890992, "name": "Portloe"}, {"lat": 50.24184529999999, "lng": -4.7940786, "name": "Gorran Haven"}, {"lat": 50.2702259, "lng": -4.787523, "name": "Mevagissey"}, {"lat": 50.337777, "lng": -4.680682, "name": "Polkerris"}, {"lat": -1.9981271, "lng": -54.9306152, "name": "Par"}, {"lat": 50.33499, "lng": -4.636525, "name": "Fowey"}, {"lat": 50.32738699999999, "lng": -4.633501, "name": "Polruah"}, {"lat": 50.3310267, "lng": -4.520718, "name": "Polperro"}, {"lat": 50.3562269, "lng": -4.455232, "name": "Looe"}, {"lat": 50.364143, "lng": -4.313948, "name": "Portwrinkle"}, {"lat": 51.3614279, "lng": -0.193961, "name": "Sutton"}, {"lat": 50.3754565, "lng": -4.1426565, "name": "Plymouth"}, {"lat": 50.3161546, "lng": -4.036691, "name": "Newton Ferrers"}, {"lat": 50.2469893, "lng": -3.8560166, "name": "Hope Cove"}, {"lat": 50.23758, "lng": -3.769791, "name": "Salcombe"}, {"lat": 41.6130323, "lng": -70.9704787, "name": "Dartmouth"}, {"lat": 50.433741, "lng": -3.685797, "name": "Totnes"}, {"lat": 50.39514, "lng": -3.513924, "name": "Brixham"}, {"lat": 50.43508, "lng": -3.564235, "name": "Paigton"}, {"lat": 50.4619209, "lng": -3.525315, "name": "Torquay"}, {"lat": 50.476935, "lng": -3.5168, "name": "Babbacombe"}, {"lat": 50.54703300000001, "lng": -3.496688, "name": "Teignmouth"}, {"lat": 50.582285, "lng": -3.464402, "name": "Dawlish"}, {"lat": 50.615488, "lng": -3.448586, "name": "Cockwood"}, {"lat": 50.626973, "lng": -3.450557, "name": "Starcross"}, {"lat": 50.684555, "lng": -3.466689, "name": "Topsham"}, {"lat": 50.718412, "lng": -3.533899, "name": "Exeter"}, {"lat": 50.6481939, "lng": -3.429485, "name": "Lympstone"}, {"lat": 50.619957, "lng": -3.413702, "name": "Exmouth"}, {"lat": 50.71616299999999, "lng": -3.052321, "name": "Axmouth"}, {"lat": 50.725156, "lng": -2.936639, "name": "Lyme Regis"}, {"lat": 50.7335769, "lng": -2.758301, "name": "Bridport"}, {"lat": 45.5230622, "lng": -122.6764816, "name": "Portland"}, {"lat": 50.6144279, "lng": -2.457621, "name": "Weymouth"}, {"lat": 50.608277, "lng": -1.960769, "name": "Swanage"}, {"lat": 50.6912513, "lng": -1.9739012, "name": "Brownsea Island"}, {"lat": 30.405076, "lng": -86.44556290000001, "name": "Pottery Place"}, {"lat": 50.71505, "lng": -1.987248, "name": "Poole"}, {"lat": -43.5320544, "lng": 172.6362254, "name": "Christchurch"}, {"lat": 50.72328, "lng": -1.570067, "name": "Keyhaven"}, {"lat": 41.7056291, "lng": -70.2286681, "name": "Yarmouth"}, {"lat": 50.758531, "lng": -1.5419099, "name": "Lymington"}, {"lat": 47.33551569999999, "lng": -95.80447939999999, "name": "Beaulieu"}, {"lat": 50.8265205, "lng": -1.3440681, "name": "Ashlett Creek"}, {"lat": 50.8918843, "lng": -1.4483102, "name": "Marchwood"}, {"lat": 57.47680179999999, "lng": 10.4778643, "name": "Elling"}, {"lat": 50.90970040000001, "lng": -1.4043509, "name": "Southampton"}, {"lat": 50.8588275, "lng": -1.3201169, "name": "Hamble"}, {"lat": 55.875195, "lng": -4.2919607, "name": "Hillhead"}, {"lat": 50.816667, "lng": -1.083333, "name": "Portsmouth"}, {"lat": 51.607214, "lng": -2.899949, "name": "Langstone"}, {"lat": 50.83761000000001, "lng": -0.774936, "name": "Chichester"}, {"lat": 50.811057, "lng": -0.5386609, "name": "Littlehampton"}, {"lat": 50.8342086, "lng": -0.2715558, "name": "Shoreham"}, {"lat": 50.82253000000001, "lng": -0.137163, "name": "Brighton"}, {"lat": 50.79307000000001, "lng": 0.045574, "name": "Newhaven"}, {"lat": 50.768035, "lng": 0.290472, "name": "Eastbourne"}, {"lat": 40.9806535, "lng": -73.68373989999999, "name": "Rye"}, {"lat": 51.081397, "lng": 1.169456, "name": "Folkestone"}, {"lat": 51.1278758, "lng": 1.3134027, "name": "Dover"}, {"lat": 51.274017, "lng": 1.337427, "name": "Sandwich"}, {"lat": 51.335545, "lng": 1.419895, "name": "Ramsgate"}, {"lat": 51.360163, "lng": 1.432038, "name": "Broadstairs"}, {"lat": 51.38964600000001, "lng": 1.3868339, "name": "Margate"}, {"lat": 51.370922, "lng": 1.127771, "name": "Herne Bay"}, {"lat": 51.361047, "lng": 1.024256, "name": "Whitstable"}, {"lat": 51.315994, "lng": 0.889358, "name": "Faversham"}, {"lat": 51.3801296, "lng": 0.7568355999999999, "name": "Ridham Dock"}, {"lat": 51.386322, "lng": 0.551438, "name": "Gillingham"}, {"lat": 51.380952, "lng": 0.52213, "name": "Chatham"}, {"lat": 43.16103, "lng": -77.6109219, "name": "Rochester"}, {"lat": 51.117936, "lng": 0.863398, "name": "Kingsnorth"}, {"lat": 51.4172853, "lng": 0.7470207, "name": "Queenborough"}, {"lat": 51.44621, "lng": 0.216872, "name": "Dartford"}, {"lat": 51.65774889999999, "lng": -0.0052483, "name": "LondonSt Ives"}, {"lat": 50.185467, "lng": -5.42091, "name": "Hayle"}, {"lat": 50.260642, "lng": -5.288665, "name": "Portreath"}, {"lat": 50.41549699999999, "lng": -5.073719, "name": "Newquay"}, {"lat": 50.54206199999999, "lng": -4.939017, "name": "Padstow"}, {"lat": 50.59382000000001, "lng": -4.829978, "name": "Port Isaac"}, {"lat": 50.68691399999999, "lng": -4.692832, "name": "Boscastle"}, {"lat": 50.826636, "lng": -4.543678, "name": "Bude"}, {"lat": 50.9981276, "lng": -4.3991182, "name": "Clovelly"}, {"lat": 51.016684, "lng": -4.206666, "name": "Bideford"}, {"lat": 51.053778, "lng": -4.193055999999999, "name": "Appledore"}, {"lat": 51.205163, "lng": -4.126761999999999, "name": "Ilfracombe"}, {"lat": 51.214707, "lng": -4.068716999999999, "name": "Watermouth"}, {"lat": 51.2295747, "lng": -3.8291697, "name": "Lynmouth"}, {"lat": 51.221964, "lng": -3.631459999999999, "name": "Porlock Weir"}, {"lat": 51.20428, "lng": -3.481152, "name": "Minehead"}, {"lat": 51.181769, "lng": -3.329177, "name": "Watchet"}, {"lat": 51.173384, "lng": -3.063262, "name": "Combwick"}, {"lat": 40.5939636, "lng": -74.6049061, "name": "Bridgewater"}, {"lat": 51.3228409, "lng": -2.977583, "name": "Uphill"}, {"lat": 51.0117308, "lng": -3.0416556, "name": "Knightstone"}, {"lat": 51.454513, "lng": -2.58791, "name": "Bristol"}, {"lat": 51.7236003, "lng": -2.4674595, "name": "Sharpness"}, {"lat": 51.72913, "lng": -2.530504, "name": "Lydney"}, {"lat": 41.4901024, "lng": -71.3128285, "name": "Newport"}, {"lat": 51.48158100000001, "lng": -3.17909, "name": "Cardiff"}, {"lat": 51.438798, "lng": -3.173507, "name": "Penarth"}, {"lat": 51.47896799999999, "lng": -3.705163, "name": "Porthcawl"}, {"lat": 51.5946799, "lng": -3.784097, "name": "Port Talbot"}, {"lat": -5.153511, "lng": 119.4377799, "name": "Briton"}, {"lat": 51.62144, "lng": -3.943645999999999, "name": "Sawnsea"}, {"lat": 51.59002599999999, "lng": -4.228153, "name": "Burry Point"}, {"lat": 51.70937900000001, "lng": -4.699726, "name": "Saudersfoot"}, {"lat": 51.672738, "lng": -4.703579, "name": "Tenby"}, {"lat": 43.9853583, "lng": -70.1804513, "name": "Stackpole Quay"}, {"lat": 51.674043, "lng": -4.908637, "name": "Pembroke"}, {"lat": 51.714306, "lng": -5.042697, "name": "Milford Haven"}, {"lat": 27.222707, "lng": -80.235194, "name": "Martin\u2019s Haven"}, {"lat": 51.8739786, "lng": -5.1953135, "name": "Solva"}, {"lat": 51.95891899999999, "lng": -5.125257, "name": "Porthgain Abercastle"}, {"lat": 51.993927, "lng": -4.975989000000001, "name": "Fishguard"}, {"lat": 51.995165, "lng": -4.968089, "name": "Lower Fishguard"}, {"lat": 53.408054, "lng": -2.9965122, "name": "New Quay"}, {"lat": 52.242793, "lng": -4.2581619, "name": "Aberaeron"}, {"lat": 52.41530299999999, "lng": -4.08292, "name": "Aberystwyth"}, {"lat": 52.543963, "lng": -4.046093, "name": "Aberdyfi"}, {"lat": 52.722873, "lng": -4.0560919, "name": "Barmouth"}, {"lat": 53.2948359, "lng": -3.578062, "name": "Pensarn"}, {"lat": 52.927842, "lng": -4.133384, "name": "Porthmadog"}, {"lat": 52.914931, "lng": -4.136272, "name": "Borth-Y-Gest"}, {"lat": 52.888816, "lng": -4.4176339, "name": "Pwllheli"}, {"lat": 52.824497, "lng": -4.5053599, "name": "Abersoch"}, {"lat": 52.80472899999999, "lng": -4.711514999999999, "name": "Abardaron"}, {"lat": 52.942939, "lng": -4.567633, "name": "Porth Dinllaen"}, {"lat": 52.9356549, "lng": -4.520111, "name": "Nefyn"}, {"lat": 52.992992, "lng": -4.427481, "name": "Trefor"}, {"lat": 47.83081869999999, "lng": 18.5962377, "name": "Belan"}, {"lat": 53.139551, "lng": -4.273911, "name": "Caernarfon"}, {"lat": 53.1393735, "lng": -4.2681939, "name": "Port Dinorwic"}, {"lat": 53.2329758, "lng": -4.1095952, "name": "Port Penrhyn"}, {"lat": 53.282872, "lng": -3.82948, "name": "Conwy"}, {"lat": 53.3080507, "lng": -3.7499412, "name": "Rhos-on-Sea"}, {"lat": 53.287553, "lng": -3.642969, "name": "Llanddulas"}, {"lat": 53.31914099999999, "lng": -3.491634, "name": "Rhyl"}, {"lat": 53.31297989999999, "lng": -3.2692784, "name": "Mostyn"}, {"lat": 53.2905029, "lng": -3.2062291, "name": "Greenfield Dock"}, {"lat": 53.22006039999999, "lng": -3.0589149, "name": "Connah\u2019s Quay"}, {"lat": 53.38999099999999, "lng": -3.023009, "name": "Birkenhead"}, {"lat": 53.3321915, "lng": -2.9772937, "name": "Bromborough"}, {"lat": 51.681598, "lng": -0.391206, "name": "Garston"}, {"lat": 53.4083714, "lng": -2.9915726, "name": "Liverpool"}, {"lat": 53.916661, "lng": -3.035673, "name": "Fleetwood"}, {"lat": 53.926205, "lng": -2.975911, "name": "Knott End"}, {"lat": 53.997847, "lng": -2.850347, "name": "Glasson Dock"}, {"lat": 54.04199, "lng": -2.894475, "name": "Heysham"}, {"lat": 54.108967, "lng": -3.218894, "name": "Barrow-in-Furness"}, {"lat": 54.212073, "lng": -3.272847, "name": "Millom"}, {"lat": 54.549699, "lng": -3.589233, "name": "Whitehaven"}, {"lat": 38.9237244, "lng": -75.5777033, "name": "Harrington"}, {"lat": 54.643569, "lng": -3.542752, "name": "Workington"}, {"lat": 54.714441, "lng": -3.49494, "name": "Maryport"}, {"lat": 54.868394, "lng": -3.389471, "name": "Silloth"}, {"lat": 54.990246, "lng": -3.259773, "name": "Annan"}, {"lat": 55.002672, "lng": -3.572666, "name": "Glencaple"}, {"lat": 55.046194, "lng": -3.6034317, "name": "Kingholm Quay"}, {"lat": 54.88005099999999, "lng": -3.814892, "name": "Kippford"}, {"lat": 54.83756899999999, "lng": -4.04878, "name": "Kircudbright"}, {"lat": 54.823019, "lng": -4.200529, "name": "Knockbrex"}, {"lat": 54.73483599999999, "lng": -4.414893, "name": "Whithorn"}, {"lat": 54.759602, "lng": -4.582727, "name": "Port William"}, {"lat": 39.79177019999999, "lng": -76.2649569, "name": "Drunmore"}, {"lat": 54.723977, "lng": -4.956053, "name": "Port Logan"}, {"lat": 54.84279, "lng": -5.116057, "name": "Portpatrick"}, {"lat": 54.903367, "lng": -5.024055, "name": "Stranraer"}, {"lat": 54.976479, "lng": -5.0268868, "name": "Cirnryan"}, {"lat": 55.098617, "lng": -5.001455, "name": "Ballantrae"}, {"lat": 55.240164, "lng": -4.854217999999999, "name": "Girvan"}, {"lat": 55.333113, "lng": -4.818632, "name": "Maidens"}, {"lat": 55.406937, "lng": -4.757339, "name": "Dunure"}, {"lat": 55.458564, "lng": -4.629179000000001, "name": "Ayr"}, {"lat": 55.541332, "lng": -4.659948, "name": "Troon"}, {"lat": 33.6839473, "lng": -117.7946942, "name": "Irvine"}, {"lat": 55.637652, "lng": -4.7834899, "name": "Saltcoats"}, {"lat": 55.64388899999999, "lng": -4.81182, "name": "Ardrossan"}, {"lat": 55.7, "lng": -4.899999999999999, "name": "Portencross"}, {"lat": 55.7233313, "lng": -4.8983287, "name": "Hunterston"}, {"lat": 55.79333500000001, "lng": -4.867278000000001, "name": "Largs"}, {"lat": 55.8913375, "lng": -4.889574, "name": "Weymess Bay"}, {"lat": 55.932291, "lng": -4.679806999999999, "name": "Port Glasgow"}, {"lat": 55.95647599999999, "lng": -4.771983, "name": "Grenock"}, {"lat": 56.002318, "lng": -4.734014, "name": "Helnburgh"}, {"lat": 56.067455, "lng": -4.8155789, "name": "Faslane"}, {"lat": 56.00995, "lng": -4.801394, "name": "Rasneath"}, {"lat": 55.985505, "lng": -4.824147, "name": "Kilcreggan"}, {"lat": 7.218879799999999, "lng": 2.3394209, "name": "Cove"}, {"lat": 56.045251, "lng": -4.869738, "name": "Coulport"}, {"lat": 56.6815017, "lng": -4.4221355, "name": "Finnart"}, {"lat": 56.1263988, "lng": -4.8175798, "name": "Glenmallan"}, {"lat": 49.6073328, "lng": -114.435524, "name": "Blairmore"}, {"lat": 55.9937062, "lng": -4.9342885, "name": "Kilmun"}, {"lat": 55.970721, "lng": -4.91158, "name": "Hunter\u2019s Quay"}, {"lat": 55.950973, "lng": -4.926214, "name": "Dunoon"}, {"lat": 55.92186299999999, "lng": -5.145398, "name": "Colintraive"}, {"lat": 55.9069394, "lng": -5.2329104, "name": "Tighnabruaich"}, {"lat": 55.87354699999999, "lng": -5.31034, "name": "Portavadie"}, {"lat": 56.00832699999999, "lng": -5.321207999999999, "name": "Otter Ferry"}, {"lat": 56.010917, "lng": -5.450042, "name": "Ardishaig"}, {"lat": 55.863246, "lng": -5.415608, "name": "Tarbert"}, {"lat": 55.7571583, "lng": -5.3931986, "name": "Claonaig"}, {"lat": 55.591379, "lng": -5.4683, "name": "Carradale"}, {"lat": 55.4310256, "lng": -5.601535399999999, "name": "Dalimtober"}, {"lat": 55.424117, "lng": -5.605373999999999, "name": "Campbeltown"}, {"lat": 55.652587, "lng": -5.662299, "name": "Tayinloan"}, {"lat": 55.80340930000001, "lng": -5.473433399999999, "name": "Kennacraig"}, {"lat": 33.7091847, "lng": -117.9536697, "name": "West Talbert"}, {"lat": 50.6143218, "lng": 12.631143, "name": "Keillbeg"}, {"lat": 56.024944, "lng": -5.627589, "name": "Tayvallich"}, {"lat": 56.090766, "lng": -5.558376, "name": "Crinan"}, {"lat": 56.18136, "lng": -5.538355999999999, "name": "Ardfern"}, {"lat": 56.235844, "lng": -5.553036, "name": "Arduaine"}, {"lat": 52.8608387, "lng": -104.6142973, "name": "Melfort"}, {"lat": 56.290418, "lng": -5.610461, "name": "Balvicar"}, {"lat": 56.216925, "lng": -5.631715, "name": "Toberonchy"}, {"lat": 56.255641, "lng": -5.65334, "name": "Cullipool"}, {"lat": 56.237303, "lng": -5.639845900000001, "name": "Luing"}, {"lat": 56.294525, "lng": -5.650464899999999, "name": "Ellenabeich"}, {"lat": 56.3833333, "lng": -5.5666667, "name": "Kerrera Slip"}, {"lat": 56.415157, "lng": -5.471047, "name": "Oban"}, {"lat": -23.5524673, "lng": 145.2885214, "name": "Barcaldine"}, {"lat": 56.553917, "lng": -5.408119999999999, "name": "PortAppin"}, {"lat": 56.57059, "lng": -5.375926000000001, "name": "Portnacroish"}, {"lat": 56.66366, "lng": -5.251895, "name": "Kentallen"}, {"lat": 56.68255989999999, "lng": -5.1022713, "name": "Glencoe"}, {"lat": 56.7215, "lng": -5.235503, "name": "Nether Lochaber"}, {"lat": 56.81981700000001, "lng": -5.105218, "name": "Fort William"}, {"lat": 56.844065, "lng": -5.128667, "name": "Corpach"}, {"lat": 57.8507, "lng": -5.263107, "name": "Camusnagaul"}, {"lat": 53.5765815, "lng": -9.01827, "name": "Ardour"}, {"lat": 56.5626311, "lng": -5.5480111, "name": "Glensanda"}, {"lat": 56.53486299999999, "lng": -5.777343, "name": "Lochaline"}, {"lat": 56.61371, "lng": -5.985857999999999, "name": "Drimnin"}, {"lat": 33.779981, "lng": -118.287743, "name": "West Harbor"}, {"lat": 56.69538799999999, "lng": -5.571178, "name": "Strontian"}, {"lat": 61.1613635, "lng": 13.262993, "name": "Salen"}, {"lat": 26.0886879, "lng": -97.6136001, "name": "Laga"}, {"lat": 56.697686, "lng": -6.113414, "name": "Kilchoan"}, {"lat": 56.7614161, "lng": -5.8775916, "name": "Kentra Bay"}, {"lat": 56.827595, "lng": -5.817474, "name": "Glenuig"}, {"lat": 56.878871, "lng": -5.665675999999999, "name": "Lochailort"}, {"lat": 56.910099, "lng": -5.842724599999999, "name": "Arisaig"}, {"lat": 57.00381300000001, "lng": -5.827173, "name": "Mllaig"}, {"lat": 57.01193809999999, "lng": -5.7920902, "name": "Mallaigmore"}, {"lat": 56.20399699999999, "lng": -4.712503, "name": "Tarbet"}, {"lat": 57.002731, "lng": -5.531219, "name": "Camusrory"}, {"lat": 57.036675, "lng": -5.681573, "name": "Inverie"}, {"lat": 44.82743370000001, "lng": 4.851927799999999, "name": "Dourne"}, {"lat": 22.6160918, "lng": 113.8389784, "name": "Airor"}, {"lat": 57.134398, "lng": -5.566164, "name": "Arnisdale"}, {"lat": -17.7579449, "lng": 31.0794502, "name": "Gleneig"}, {"lat": 57.2791, "lng": -5.5155414, "name": "Dornie"}, {"lat": 57.272469, "lng": -5.728813, "name": "Kyleakin"}, {"lat": 57.2826065, "lng": -5.7143293, "name": "Kyle of Lochalsh"}, {"lat": 57.3406167, "lng": -5.6490887, "name": "Plokton"}, {"lat": 57.35244400000001, "lng": -5.551392, "name": "Stromeferr South"}, {"lat": 57.396503, "lng": -5.602889999999999, "name": "Ardarroch"}, {"lat": -32.0122672, "lng": 115.8450288, "name": "Kishorn"}, {"lat": 57.378325, "lng": -5.809679, "name": "Toscaig"}, {"lat": 57.4319012, "lng": -5.809727, "name": "Applecross"}, {"lat": 57.52234199999999, "lng": -5.650586, "name": "Shieldaig"}, {"lat": 57.5493711, "lng": -5.5144364, "name": "Fasag"}, {"lat": 57.55692999999999, "lng": -5.60422, "name": "Inveralligin"}, {"lat": 57.58270899999999, "lng": -5.692513, "name": "Diabaig"}, {"lat": 57.696686, "lng": -5.724462, "name": "Badachro"}, {"lat": 57.72822000000001, "lng": -5.693912, "name": "Gairloch"}, {"lat": 57.813843, "lng": -5.671385, "name": "Inverasdale"}, {"lat": 57.840797, "lng": -5.587333, "name": "Aultbea"}, {"lat": 57.8647, "lng": -5.542584, "name": "Laide"}, {"lat": 57.894609, "lng": -5.389823, "name": "Badluarach"}, {"lat": 57.91173299999999, "lng": -5.377317, "name": "Scoraig"}, {"lat": 57.88686269999999, "lng": -5.1804386, "name": "Alnaharrie"}, {"lat": 57.86742400000001, "lng": -5.094952, "name": "Leckmelm"}, {"lat": 57.895418, "lng": -5.161313, "name": "Ullapool"}, {"lat": 57.93406900000001, "lng": -5.196189, "name": "Ardmair"}, {"lat": 58.02480999999999, "lng": -5.352271, "name": "Achiltibuie"}, {"lat": 58.0368602, "lng": -5.4078032, "name": "Old Dornie"}, {"lat": 50.0994255, "lng": 6.2128875, "name": "Reiff"}, {"lat": 58.1466612, "lng": -5.239685499999999, "name": "Lochinver"}, {"lat": 58.24288000000001, "lng": -5.344998, "name": "Culkein"}, {"lat": 58.24321099999999, "lng": -5.202242, "name": "Drumbeg"}, {"lat": 58.25585599999999, "lng": -5.018689999999999, "name": "Kylasku"}, {"lat": 58.35177259999999, "lng": -5.152063399999999, "name": "Scourie"}, {"lat": 56.20399699999999, "lng": -4.712503, "name": "Tarbet"}, {"lat": 58.397351, "lng": -5.121554, "name": "Fanagmore"}, {"lat": 55.7587128, "lng": -4.1575529, "name": "Loch Laxford"}, {"lat": 58.458818, "lng": -5.049151999999999, "name": "Kinlochbervie"}, {"lat": 58.4611664, "lng": -5.0598298, "name": "Loch Clash"}, {"lat": 52.0555643, "lng": -9.4603817, "name": "Droman"}, {"lat": 58.5529375, "lng": -4.7816966, "name": "Keodale East"}, {"lat": 58.54913469999999, "lng": -4.662609499999999, "name": "Rispond"}, {"lat": 58.5026534, "lng": -4.7012565, "name": "Portnancon"}, {"lat": 58.531724, "lng": -4.432752, "name": "Talmine"}, {"lat": 58.539835, "lng": -4.3201306, "name": "Lamingo Bay"}, {"lat": 44.76777999999999, "lng": -74.38221999999999, "name": "Skerry"}, {"lat": 58.525222, "lng": -4.222343, "name": "Bettyhill"}, {"lat": 58.54153099999999, "lng": -4.158088, "name": "Kirtomy"}, {"lat": -31.4358806, "lng": 152.9151417, "name": "Port Grant"}, {"lat": 58.56402699999999, "lng": -3.93365, "name": "Portskerra"}, {"lat": 32.715738, "lng": -117.1610838, "name": "Sansdie"}, {"lat": 58.61102599999999, "lng": -3.552627, "name": "Scarbster"}, {"lat": 58.62295100000001, "lng": -3.3405405, "name": "Dwarwick"}, {"lat": 58.593566, "lng": -3.52208, "name": "Thurso"}, {"lat": -33.7328193, "lng": 151.0049599, "name": "Castlehill"}, {"lat": 58.62295100000001, "lng": -3.3405405, "name": "Dwarwick"}, {"lat": 53.729988, "lng": -0.5732149999999999, "name": "Brough"}, {"lat": 58.649309, "lng": -3.272971, "name": "Scarfskerry"}, {"lat": 51.580559, "lng": -0.341995, "name": "Harrow"}, {"lat": 30.6035443, "lng": -88.0891468, "name": "Gill\u2019s Bay"}, {"lat": 32.0513158, "lng": 34.7921583, "name": "Huna"}, {"lat": 58.6373368, "lng": -3.0688997, "name": "John O Groats"}, {"lat": 32.0513158, "lng": 34.7921583, "name": "Huna"}, {"lat": 58.599051, "lng": -3.0587369, "name": "Skirza"}, {"lat": 58.5564277, "lng": -3.0872258, "name": "Auckengill"}, {"lat": 58.45415099999999, "lng": -3.059185, "name": "Staxigoe"}, {"lat": 58.438936, "lng": -3.093716, "name": "Wick"}, {"lat": 58.304216, "lng": -3.285232, "name": "Lybster"}, {"lat": 58.274768, "lng": -3.382873, "name": "Latheronwheel"}, {"lat": 58.250685, "lng": -3.433149, "name": "Dunbeath"}, {"lat": -36.3655458, "lng": 148.8273964, "name": "Berridale"}, {"lat": 58.11726099999999, "lng": -3.653533, "name": "Helmsdale"}, {"lat": 58.01215699999999, "lng": -3.852548, "name": "Brora"}, {"lat": 57.973406, "lng": -3.976086, "name": "Golspie"}, {"lat": 40.8528777, "lng": -74.0420848, "name": "Littleferry"}, {"lat": 57.90876300000001, "lng": -3.999339, "name": "Embo"}, {"lat": 57.858269, "lng": -4.143667, "name": "Meikie Ferry"}, {"lat": 57.8360236, "lng": -3.8222476, "name": "Portmahomack"}, {"lat": 36.9103192, "lng": -86.564438, "name": "Rockfield"}, {"lat": 47.6413061, "lng": -117.5369608, "name": "Hilton"}, {"lat": 57.75613200000001, "lng": -3.90923, "name": "Balintore"}, {"lat": 57.717838, "lng": -4.007803, "name": "Nigg"}, {"lat": 57.688106, "lng": -4.172882, "name": "Invergordon"}, {"lat": 57.670196, "lng": -4.17749, "name": "Balblair"}, {"lat": 57.680609, "lng": -4.034678, "name": "Cromarty"}, {"lat": 29.5127072, "lng": -95.047393, "name": "Portrose"}, {"lat": 57.566687, "lng": -4.174666999999999, "name": "Avoch"}, {"lat": 57.477773, "lng": -4.224721, "name": "Inverness"}, {"lat": 57.58642200000001, "lng": -3.868475, "name": "Nairn"}, {"lat": 57.65900000000001, "lng": -3.610999999999999, "name": "Findhorn"}, {"lat": 57.700232, "lng": -3.489213, "name": "Burghead"}, {"lat": 57.70624999999999, "lng": -3.434834, "name": "Hopeman"}, {"lat": 57.72157899999999, "lng": -3.280325, "name": "Lossiemouth"}, {"lat": 57.67739199999999, "lng": -2.967311, "name": "Buckie"}, {"lat": 57.66356599999999, "lng": -3.015018, "name": "Portgordon"}, {"lat": 57.703032, "lng": -2.859311, "name": "Portkanckie"}, {"lat": 46.652402, "lng": 4.652258, "name": "Culles"}, {"lat": 57.684963, "lng": -2.747948, "name": "Sandend"}, {"lat": 57.681023, "lng": -2.688412, "name": "Portsoy"}, {"lat": 57.676859, "lng": -2.580352, "name": "Whitehills"}, {"lat": 51.1783629, "lng": -115.5707694, "name": "Banff"}, {"lat": 57.672227, "lng": -2.337199, "name": "Gardenstown"}, {"lat": 57.67058999999999, "lng": -2.497849, "name": "Macduff"}, {"lat": 57.67900110000001, "lng": -2.3238276, "name": "Crovie"}, {"lat": 57.67744700000001, "lng": -2.259966, "name": "Pennan"}, {"lat": 57.695531, "lng": -2.118062, "name": "Rosehaerty"}, {"lat": 57.69642700000001, "lng": -2.062227, "name": "Sandhaven"}, {"lat": 57.693352, "lng": -2.007631, "name": "Fraserburgh"}, {"lat": 57.677271, "lng": -1.936912, "name": "Cairnbulg"}, {"lat": 57.50812299999999, "lng": -1.784066, "name": "Peterhead"}, {"lat": 57.513218, "lng": -1.789512, "name": "Buchanhaven"}, {"lat": 57.470373, "lng": -1.779524, "name": "Boddam"}, {"lat": 57.41366899999999, "lng": -1.846107, "name": "Port Erroll"}, {"lat": 57.34591599999999, "lng": -1.938273, "name": "Collieston"}, {"lat": 57.149717, "lng": -2.094278, "name": "Aberdeen"}, {"lat": 57.102949, "lng": -2.082979, "name": "Cove Bay"}, {"lat": 56.96366099999999, "lng": -2.209288, "name": "Stonehaven"}, {"lat": 56.894097, "lng": -2.21828, "name": "Catterline"}, {"lat": 44.736788, "lng": 1.381867, "name": "Gourdon"}, {"lat": 56.795146, "lng": -2.335959, "name": "Johnshaven"}, {"lat": 56.706922, "lng": -2.466115, "name": "Montrose"}, {"lat": 24.7711945, "lng": 73.67128009999999, "name": "Usan"}, {"lat": 56.588963, "lng": -2.522745, "name": "Auchmithie"}, {"lat": 56.559107, "lng": -2.591543, "name": "Arbroath"}, {"lat": 56.4742525, "lng": -2.8665281, "name": "Broughty Ferry"}, {"lat": 56.462018, "lng": -2.970721, "name": "Dundee"}, {"lat": -31.9535132, "lng": 115.8570471, "name": "Perth"}, {"lat": 41.5034271, "lng": -74.0104178, "name": "Newburgh"}, {"lat": 56.423663, "lng": -2.981068, "name": "Wormit"}, {"lat": 56.440473, "lng": -2.940732, "name": "Newport-on-Tay"}, {"lat": 56.447996, "lng": -2.880912, "name": "Tayport"}, {"lat": 31.1526506, "lng": -81.3991162, "name": "St Andrews"}, {"lat": 45.0925202, "lng": -84.326014, "name": "Crall"}, {"lat": 56.22584999999999, "lng": -2.688899, "name": "Cellardyke"}, {"lat": 56.22298000000001, "lng": -2.700539, "name": "Antruther"}, {"lat": 56.214, "lng": -2.732285, "name": "Pittenweem"}, {"lat": 56.204812, "lng": -2.765718, "name": "St Monans"}, {"lat": 56.190472, "lng": -2.822051, "name": "Elie"}, {"lat": 56.21366700000001, "lng": -2.9395272, "name": "Lower Largo"}, {"lat": 56.184843, "lng": -3.0164019, "name": "Methil"}, {"lat": 56.1399217, "lng": -3.0862397, "name": "West Wemyss"}, {"lat": 42.171659, "lng": -92.3062978, "name": "Dysart"}, {"lat": 56.1168249, "lng": -3.158137, "name": "Kirkcaldy"}, {"lat": 56.062641, "lng": -3.177638, "name": "Pettycur"}, {"lat": 56.058809, "lng": -3.233915, "name": "Burntisland"}, {"lat": 56.0259532, "lng": -3.7913557, "name": "Carron"}, {"lat": 56.054679, "lng": -3.30273, "name": "Aberdour"}, {"lat": 56.03490799999999, "lng": -3.35056, "name": "Dalgerty Bay"}, {"lat": 56.030043, "lng": -3.398795, "name": "Inverkelthing"}, {"lat": 56.0101001, "lng": -3.3945959, "name": "North Queensferry"}, {"lat": 56.03646999999999, "lng": -3.423064, "name": "Rosyth"}, {"lat": 27.8867164, "lng": -82.3212633, "name": "Brucehaven"}, {"lat": 40.3363516, "lng": -75.80277199999999, "name": "Limekiln"}, {"lat": 42.3782065, "lng": -71.0602131, "name": "Charlestown"}, {"lat": 56.0097152, "lng": -3.7227698, "name": "Grangemouth"}, {"lat": 56.002754, "lng": -3.52281, "name": "Blackness"}, {"lat": 55.9929996, "lng": -3.4073012, "name": "Port Edgar"}, {"lat": 55.99000299999999, "lng": -3.399045, "name": "South Queensferry"}, {"lat": 55.9934018, "lng": -3.3732308, "name": "LongCriag"}, {"lat": 55.9906704, "lng": -3.3852536, "name": "Hawes Pier"}, {"lat": 50.79307000000001, "lng": 0.045574, "name": "Newhaven"}, {"lat": 55.975117, "lng": -3.166243, "name": "Leith"}, {"lat": 51.7538755, "lng": -1.2657146, "name": "Fisherrow"}, {"lat": 55.9703078, "lng": -2.9455236, "name": "Port Seton"}, {"lat": 56.058363, "lng": -2.719646, "name": "North Berwick"}, {"lat": 37.785941, "lng": -122.4907, "name": "Seacliff"}, {"lat": 56.002087, "lng": -2.516737, "name": "Dunbar"}, {"lat": 7.218879799999999, "lng": 2.3394209, "name": "Cove"}, {"lat": 55.898921, "lng": -2.138515, "name": "St Abbs"}, {"lat": 55.869058, "lng": -2.091068, "name": "Eyemouth"}, {"lat": 51.9823244, "lng": 4.5004821, "name": "Burnouth"}, {"lat": 55.770242, "lng": -2.005395, "name": "Berwick-upon-Tweed"}, {"lat": 47.80889, "lng": -114.2275, "name": "Lindesfarne"}, {"lat": 55.581148, "lng": -1.651159, "name": "Seahouses"}, {"lat": 55.5563446, "lng": -1.6383807, "name": "Craster Beadnell"}, {"lat": 55.3902223, "lng": -1.6129047, "name": "Alnmouth"}, {"lat": 55.331461, "lng": -1.585261, "name": "Amble"}, {"lat": 54.486335, "lng": -0.613347, "name": "Whitby"}, {"lat": 54.283113, "lng": -0.399752, "name": "Scarborough"}, {"lat": 54.2116686, "lng": -0.2828801, "name": "Filey Coble Landing"}, {"lat": 54.1100909, "lng": -0.1634957, "name": "Flamborough Landing"}, {"lat": 54.08535, "lng": -0.198802, "name": "Bridlington"}, {"lat": 50.171311, "lng": 12.1339323, "name": "Selby"}, {"lat": 53.745894, "lng": -0.868877, "name": "Howden"}, {"lat": 53.702941, "lng": -0.876381, "name": "Goole"}, {"lat": 53.59669299999999, "lng": -0.73951, "name": "Keadby"}, {"lat": 53.400575, "lng": -0.774465, "name": "Gainsborough"}, {"lat": 53.59125, "lng": -0.729656, "name": "Gunness"}, {"lat": 45.5374095, "lng": -76.4141758, "name": "Grove Wharf"}, {"lat": 53.608683, "lng": -0.7011379999999999, "name": "Neap House"}, {"lat": 53.625194, "lng": -0.6850229999999999, "name": "Flixborough"}, {"lat": 53.649532, "lng": -0.684465, "name": "Burton-upon-Stather"}, {"lat": 53.693394, "lng": -0.392823, "name": "Barrow Haven"}, {"lat": 53.6915789, "lng": -0.4383346, "name": "Barton Haven"}, {"lat": 53.614012, "lng": -0.215913, "name": "Immingham"}, {"lat": 53.567471, "lng": -0.080784, "name": "Grimsby"}, {"lat": 53.1288572, "lng": 0.2228993, "name": "Wainfleet Haven"}, {"lat": 52.7516798, "lng": 0.4022963000000001, "name": "King\u2019s Lyn"}, {"lat": 52.96076499999999, "lng": 0.580857, "name": "Thornham"}, {"lat": 52.96243699999999, "lng": 0.638894, "name": "Brancaster"}, {"lat": 52.9629529, "lng": 0.7532451, "name": "Burnham Overy"}, {"lat": 48.16542, "lng": 14.03664, "name": "Staith Wels"}, {"lat": 52.9534778, "lng": 0.9729745, "name": "Morston Quay"}, {"lat": 52.953685, "lng": 1.014356, "name": "Blakney"}, {"lat": 52.598233, "lng": 1.728047, "name": "Great Yarmouth"}, {"lat": 52.48113799999999, "lng": 1.753449, "name": "Lowestoft"}, {"lat": 52.32562799999999, "lng": 1.680181, "name": "Southwold"}, {"lat": 52.314994, "lng": 1.661398, "name": "Walberswick"}, {"lat": 52.1432373, "lng": 1.5994146, "name": "Slaughden Quay"}, {"lat": 43.9014167, "lng": -72.1417216, "name": "Orford"}, {"lat": 52.0294, "lng": 1.361564, "name": "Ramsholt"}, {"lat": 52.012223, "lng": 1.417586, "name": "Bawdsey"}, {"lat": 51.961726, "lng": 1.351255, "name": "Felixstowe"}, {"lat": 51.94562500000001, "lng": 1.0773489, "name": "Mistley"}, {"lat": 18.1959208, "lng": -77.8210036, "name": "Ipswitch"}, {"lat": 51.934731, "lng": 1.260297, "name": "Harwich"}, {"lat": 51.816142, "lng": 1.021399, "name": "Brightlingsea"}, {"lat": 51.857997, "lng": 0.9652740000000001, "name": "Wivenhoe"}, {"lat": 51.84374099999999, "lng": 0.9450000000000001, "name": "Fingringhoe"}, {"lat": 51.73180499999999, "lng": 0.6714479999999999, "name": "Maldon"}, {"lat": 51.628347, "lng": 0.814539, "name": "Burnham-on-Crouch"}, {"lat": 51.582071, "lng": 0.706515, "name": "Rochford"}, {"lat": 51.5474028, "lng": 0.6472768999999999, "name": "Leigh-on-Sea"}, {"lat": 51.463024, "lng": 0.360498, "name": "Tilbury"}, {"lat": 51.48671059999999, "lng": 0.2433122, "name": "Purfleet"}, {"lat": 51.5073509, "lng": -0.1277583, "name": "London"}]