[
  {
    "lat": 50.084245,
    "lng": -5.539061999999999,
    "name": "Mousehole"
  },
  {
    "lat": 50.10705799999999,
    "lng": -5.550328899999999,
    "name": "Newlyn"
  },
  {
    "lat": 50.085305,
    "lng": -5.315853,
    "name": "Porthleven"
  },
  {
    "lat": 50.0163732,
    "lng": -5.2550059,
    "name": "Mullion Cove"
  },
  {
    "lat": 50.15257099999999,
    "lng": -5.066269999999999,
    "name": "Falmouth"
  },
  {
    "lat": 50.219505,
    "lng": -4.890992,
    "name": "Portloe"
  },
  {
    "lat": 50.24184529999999,
    "lng": -4.7940786,
    "name": "Gorran Haven"
  },
  {
    "lat": 50.2702259,
    "lng": -4.787523,
    "name": "Mevagissey"
  },
  {
    "lat": -1.9981271,
    "lng": -54.9306152,
    "name": "Par"
  },
  {
    "lat": 50.33499,
    "lng": -4.636525,
    "name": "Fowey"
  },
  {
    "lat": 50.3562269,
    "lng": -4.455232,
    "name": "Looe"
  },
  {
    "lat": 50.3754565,
    "lng": -4.1426565,
    "name": "Plymouth"
  },
  {
    "lat": 50.2469893,
    "lng": -3.8560166,
    "name": "Hope Cove"
  },
  {
    "lat": 50.23758,
    "lng": -3.769791,
    "name": "Salcombe"
  },
  {
    "lat": 41.6130323,
    "lng": -70.9704787,
    "name": "Dartmouth"
  },
  {
    "lat": 50.39514,
    "lng": -3.513924,
    "name": "Brixham"
  },
  {
    "lat": 50.43508,
    "lng": -3.564235,
    "name": "Paigton"
  },
  {
    "lat": 50.54703300000001,
    "lng": -3.496688,
    "name": "Teignmouth"
  },
  {
    "lat": 50.582285,
    "lng": -3.464402,
    "name": "Dawlish"
  },
  {
    "lat": 50.6481939,
    "lng": -3.429485,
    "name": "Lympstone"
  },
  {
    "lat": 50.619957,
    "lng": -3.413702,
    "name": "Exmouth"
  },
  {
    "lat": 50.71616299999999,
    "lng": -3.052321,
    "name": "Axmouth"
  },
  {
    "lat": 50.725156,
    "lng": -2.936639,
    "name": "Lyme Regis"
  },
  {
    "lat": 45.5230622,
    "lng": -122.6764816,
    "name": "Portland"
  },
  {
    "lat": 50.6144279,
    "lng": -2.457621,
    "name": "Weymouth"
  },
  {
    "lat": 50.6912513,
    "lng": -1.9739012,
    "name": "Brownsea Island"
  },
  {
    "lat": 50.71505,
    "lng": -1.987248,
    "name": "Poole"
  },
  {
    "lat": -43.5320544,
    "lng": 172.6362254,
    "name": "Christchurch"
  },
  {
    "lat": 41.7056291,
    "lng": -70.2286681,
    "name": "Yarmouth"
  },
  {
    "lat": 50.758531,
    "lng": -1.5419099,
    "name": "Lymington"
  },
  {
    "lat": 47.33551569999999,
    "lng": -95.80447939999999,
    "name": "Beaulieu"
  },
  {
    "lat": 50.90970040000001,
    "lng": -1.4043509,
    "name": "Southampton"
  },
  {
    "lat": 50.8588275,
    "lng": -1.3201169,
    "name": "Hamble"
  },
  {
    "lat": 50.816667,
    "lng": -1.083333,
    "name": "Portsmouth"
  },
  {
    "lat": 51.607214,
    "lng": -2.899949,
    "name": "Langstone"
  },
  {
    "lat": 50.83761000000001,
    "lng": -0.774936,
    "name": "Chichester"
  },
  {
    "lat": 50.8342086,
    "lng": -0.2715558,
    "name": "Shoreham"
  },
  {
    "lat": 50.82253000000001,
    "lng": -0.137163,
    "name": "Brighton"
  },
  {
    "lat": 40.9806535,
    "lng": -73.68373989999999,
    "name": "Rye"
  },
  {
    "lat": 51.081397,
    "lng": 1.169456,
    "name": "Folkestone"
  },
  {
    "lat": 51.1278758,
    "lng": 1.3134027,
    "name": "Dover"
  },
  {
    "lat": 51.274017,
    "lng": 1.337427,
    "name": "Sandwich"
  },
  {
    "lat": 51.335545,
    "lng": 1.419895,
    "name": "Ramsgate"
  },
  {
    "lat": 51.360163,
    "lng": 1.432038,
    "name": "Broadstairs"
  },
  {
    "lat": 51.38964600000001,
    "lng": 1.3868339,
    "name": "Margate"
  },
  {
    "lat": 51.370922,
    "lng": 1.127771,
    "name": "Herne Bay"
  },
  {
    "lat": 51.361047,
    "lng": 1.024256,
    "name": "Whitstable"
  },
  {
    "lat": 51.44621,
    "lng": 0.216872,
    "name": "Dartford"
  },
  {
    "lat": 50.185467,
    "lng": -5.42091,
    "name": "Hayle"
  },
  {
    "lat": 50.41549699999999,
    "lng": -5.073719,
    "name": "Newquay"
  },
  {
    "lat": 50.54206199999999,
    "lng": -4.939017,
    "name": "Padstow"
  },
  {
    "lat": 50.59382000000001,
    "lng": -4.829978,
    "name": "Port Isaac"
  },
  {
    "lat": 50.68691399999999,
    "lng": -4.692832,
    "name": "Boscastle"
  },
  {
    "lat": 50.826636,
    "lng": -4.543678,
    "name": "Bude"
  },
  {
    "lat": 50.9981276,
    "lng": -4.3991182,
    "name": "Clovelly"
  },
  {
    "lat": 51.053778,
    "lng": -4.193055999999999,
    "name": "Appledore"
  },
  {
    "lat": 51.205163,
    "lng": -4.126761999999999,
    "name": "Ilfracombe"
  },
  {
    "lat": 51.214707,
    "lng": -4.068716999999999,
    "name": "Watermouth"
  },
  {
    "lat": 51.2295747,
    "lng": -3.8291697,
    "name": "Lynmouth"
  },
  {
    "lat": 51.20428,
    "lng": -3.481152,
    "name": "Minehead"
  },
  {
    "lat": 51.173384,
    "lng": -3.063262,
    "name": "Combwick"
  },
  {
    "lat": 40.5939636,
    "lng": -74.6049061,
    "name": "Bridgewater"
  },
  {
    "lat": 51.3228409,
    "lng": -2.977583,
    "name": "Uphill"
  },
  {
    "lat": 51.7236003,
    "lng": -2.4674595,
    "name": "Sharpness"
  },
  {
    "lat": 51.72913,
    "lng": -2.530504,
    "name": "Lydney"
  },
  {
    "lat": 41.4901024,
    "lng": -71.3128285,
    "name": "Newport"
  },
  {
    "lat": 51.48158100000001,
    "lng": -3.17909,
    "name": "Cardiff"
  },
  {
    "lat": 51.5946799,
    "lng": -3.784097,
    "name": "Port Talbot"
  },
  {
    "lat": 51.62144,
    "lng": -3.943645999999999,
    "name": "Sawnsea"
  },
  {
    "lat": 51.59002599999999,
    "lng": -4.228153,
    "name": "Burry Point"
  },
  {
    "lat": 51.70937900000001,
    "lng": -4.699726,
    "name": "Saudersfoot"
  },
  {
    "lat": 51.672738,
    "lng": -4.703579,
    "name": "Tenby"
  },
  {
    "lat": 43.9853583,
    "lng": -70.1804513,
    "name": "Stackpole Quay"
  },
  {
    "lat": 51.674043,
    "lng": -4.908637,
    "name": "Pembroke"
  },
  {
    "lat": 51.714306,
    "lng": -5.042697,
    "name": "Milford Haven"
  },
  {
    "lat": 51.993927,
    "lng": -4.975989000000001,
    "name": "Fishguard"
  },
  {
    "lat": 52.41530299999999,
    "lng": -4.08292,
    "name": "Aberystwyth"
  },
  {
    "lat": 52.927842,
    "lng": -4.133384,
    "name": "Porthmadog"
  },
  {
    "lat": 52.80472899999999,
    "lng": -4.711514999999999,
    "name": "Abardaron"
  },
  {
    "lat": 52.942939,
    "lng": -4.567633,
    "name": "Porth Dinllaen"
  },
  {
    "lat": 53.139551,
    "lng": -4.273911,
    "name": "Caernarfon"
  },
  {
    "lat": 53.2329758,
    "lng": -4.1095952,
    "name": "Port Penrhyn"
  },
  {
    "lat": 53.282872,
    "lng": -3.82948,
    "name": "Conwy"
  },
  {
    "lat": 53.31914099999999,
    "lng": -3.491634,
    "name": "Rhyl"
  },
  {
    "lat": 53.31297989999999,
    "lng": -3.2692784,
    "name": "Mostyn"
  },
  {
    "lat": 53.3321915,
    "lng": -2.9772937,
    "name": "Bromborough"
  },
  {
    "lat": 53.4083714,
    "lng": -2.9915726,
    "name": "Liverpool"
  },
  {
    "lat": 54.108967,
    "lng": -3.218894,
    "name": "Barrow-in-Furness"
  },
  {
    "lat": 54.212073,
    "lng": -3.272847,
    "name": "Millom"
  },
  {
    "lat": 54.549699,
    "lng": -3.589233,
    "name": "Whitehaven"
  },
  {
    "lat": 38.9237244,
    "lng": -75.5777033,
    "name": "Harrington"
  },
  {
    "lat": 54.643569,
    "lng": -3.542752,
    "name": "Workington"
  },
  {
    "lat": 54.714441,
    "lng": -3.49494,
    "name": "Maryport"
  },
  {
    "lat": 54.868394,
    "lng": -3.389471,
    "name": "Silloth"
  },
  {
    "lat": 54.990246,
    "lng": -3.259773,
    "name": "Annan"
  },
  {
    "lat": 55.002672,
    "lng": -3.572666,
    "name": "Glencaple"
  },
  {
    "lat": 54.88005099999999,
    "lng": -3.814892,
    "name": "Kippford"
  },
  {
    "lat": 54.759602,
    "lng": -4.582727,
    "name": "Port William"
  },
  {
    "lat": 39.79177019999999,
    "lng": -76.2649569,
    "name": "Drunmore"
  },
  {
    "lat": 54.723977,
    "lng": -4.956053,
    "name": "Port Logan"
  },
  {
    "lat": 54.903367,
    "lng": -5.024055,
    "name": "Stranraer"
  },
  {
    "lat": 55.098617,
    "lng": -5.001455,
    "name": "Ballantrae"
  },
  {
    "lat": 55.240164,
    "lng": -4.854217999999999,
    "name": "Girvan"
  },
  {
    "lat": 55.333113,
    "lng": -4.818632,
    "name": "Maidens"
  },
  {
    "lat": 55.458564,
    "lng": -4.629179000000001,
    "name": "Ayr"
  },
  {
    "lat": 55.541332,
    "lng": -4.659948,
    "name": "Troon"
  },
  {
    "lat": 55.637652,
    "lng": -4.7834899,
    "name": "Saltcoats"
  },
  {
    "lat": 55.79333500000001,
    "lng": -4.867278000000001,
    "name": "Largs"
  },
  {
    "lat": 55.932291,
    "lng": -4.679806999999999,
    "name": "Port Glasgow"
  },
  {
    "lat": 55.95647599999999,
    "lng": -4.771983,
    "name": "Grenock"
  },
  {
    "lat": 56.067455,
    "lng": -4.8155789,
    "name": "Faslane"
  },
  {
    "lat": 55.950973,
    "lng": -4.926214,
    "name": "Dunoon"
  },
  {
    "lat": 55.863246,
    "lng": -5.415608,
    "name": "Tarbert"
  },
  {
    "lat": 55.591379,
    "lng": -5.4683,
    "name": "Carradale"
  },
  {
    "lat": 55.424117,
    "lng": -5.605373999999999,
    "name": "Campbeltown"
  },
  {
    "lat": 55.652587,
    "lng": -5.662299,
    "name": "Tayinloan"
  },
  {
    "lat": 55.80340930000001,
    "lng": -5.473433399999999,
    "name": "Kennacraig"
  },
  {
    "lat": 56.024944,
    "lng": -5.627589,
    "name": "Tayvallich"
  },
  {
    "lat": 56.090766,
    "lng": -5.558376,
    "name": "Crinan"
  },
  {
    "lat": 56.18136,
    "lng": -5.538355999999999,
    "name": "Ardfern"
  },
  {
    "lat": 56.237303,
    "lng": -5.639845900000001,
    "name": "Luing"
  },
  {
    "lat": 56.294525,
    "lng": -5.650464899999999,
    "name": "Ellenabeich"
  },
  {
    "lat": 56.3833333,
    "lng": -5.5666667,
    "name": "Kerrera Slip"
  },
  {
    "lat": 56.415157,
    "lng": -5.471047,
    "name": "Oban"
  },
  {
    "lat": 56.553917,
    "lng": -5.408119999999999,
    "name": "PortAppin"
  },
  {
    "lat": 56.81981700000001,
    "lng": -5.105218,
    "name": "Fort William"
  },
  {
    "lat": 56.53486299999999,
    "lng": -5.777343,
    "name": "Lochaline"
  },
  {
    "lat": 56.61371,
    "lng": -5.985857999999999,
    "name": "Drimnin"
  },
  {
    "lat": 56.69538799999999,
    "lng": -5.571178,
    "name": "Strontian"
  },
  {
    "lat": 56.7614161,
    "lng": -5.8775916,
    "name": "Kentra Bay"
  },
  {
    "lat": 56.827595,
    "lng": -5.817474,
    "name": "Glenuig"
  },
  {
    "lat": 56.910099,
    "lng": -5.842724599999999,
    "name": "Arisaig"
  },
  {
    "lat": 57.00381300000001,
    "lng": -5.827173,
    "name": "Mllaig"
  },
  {
    "lat": 56.20399699999999,
    "lng": -4.712503,
    "name": "Tarbet"
  },
  {
    "lat": 57.2826065,
    "lng": -5.7143293,
    "name": "Kyle of Lochalsh"
  },
  {
    "lat": 57.3406167,
    "lng": -5.6490887,
    "name": "Plokton"
  },
  {
    "lat": 57.4319012,
    "lng": -5.809727,
    "name": "Applecross"
  },
  {
    "lat": 57.72822000000001,
    "lng": -5.693912,
    "name": "Gairloch"
  },
  {
    "lat": 57.8647,
    "lng": -5.542584,
    "name": "Laide"
  },
  {
    "lat": 57.91173299999999,
    "lng": -5.377317,
    "name": "Scoraig"
  },
  {
    "lat": 57.895418,
    "lng": -5.161313,
    "name": "Ullapool"
  },
  {
    "lat": 58.0368602,
    "lng": -5.4078032,
    "name": "Old Dornie"
  },
  {
    "lat": 58.35177259999999,
    "lng": -5.152063399999999,
    "name": "Scourie"
  },
  {
    "lat": 56.20399699999999,
    "lng": -4.712503,
    "name": "Tarbet"
  },
  {
    "lat": 58.397351,
    "lng": -5.121554,
    "name": "Fanagmore"
  },
  {
    "lat": 58.5026534,
    "lng": -4.7012565,
    "name": "Portnancon"
  },
  {
    "lat": 58.531724,
    "lng": -4.432752,
    "name": "Talmine"
  },
  {
    "lat": 44.76777999999999,
    "lng": -74.38221999999999,
    "name": "Skerry"
  },
  {
    "lat": 58.56402699999999,
    "lng": -3.93365,
    "name": "Portskerra"
  },
  {
    "lat": 32.715738,
    "lng": -117.1610838,
    "name": "Sansdie"
  },
  {
    "lat": 58.61102599999999,
    "lng": -3.552627,
    "name": "Scarbster"
  },
  {
    "lat": 58.649309,
    "lng": -3.272971,
    "name": "Scarfskerry"
  },
  {
    "lat": 58.6373368,
    "lng": -3.0688997,
    "name": "John O Groats"
  },
  {
    "lat": 32.0513158,
    "lng": 34.7921583,
    "name": "Huna"
  },
  {
    "lat": 58.599051,
    "lng": -3.0587369,
    "name": "Skirza"
  },
  {
    "lat": 58.438936,
    "lng": -3.093716,
    "name": "Wick"
  },
  {
    "lat": 58.250685,
    "lng": -3.433149,
    "name": "Dunbeath"
  },
  {
    "lat": 58.01215699999999,
    "lng": -3.852548,
    "name": "Brora"
  },
  {
    "lat": 57.973406,
    "lng": -3.976086,
    "name": "Golspie"
  },
  {
    "lat": 40.8528777,
    "lng": -74.0420848,
    "name": "Littleferry"
  },
  {
    "lat": 57.90876300000001,
    "lng": -3.999339,
    "name": "Embo"
  },
  {
    "lat": 57.75613200000001,
    "lng": -3.90923,
    "name": "Balintore"
  },
  {
    "lat": 57.717838,
    "lng": -4.007803,
    "name": "Nigg"
  },
  {
    "lat": 57.680609,
    "lng": -4.034678,
    "name": "Cromarty"
  },
  {
    "lat": 57.477773,
    "lng": -4.224721,
    "name": "Inverness"
  },
  {
    "lat": 57.58642200000001,
    "lng": -3.868475,
    "name": "Nairn"
  },
  {
    "lat": 57.65900000000001,
    "lng": -3.610999999999999,
    "name": "Findhorn"
  },
  {
    "lat": 57.700232,
    "lng": -3.489213,
    "name": "Burghead"
  },
  {
    "lat": 57.72157899999999,
    "lng": -3.280325,
    "name": "Lossiemouth"
  },
  {
    "lat": 57.67739199999999,
    "lng": -2.967311,
    "name": "Buckie"
  },
  {
    "lat": 51.1783629,
    "lng": -115.5707694,
    "name": "Banff"
  },
  {
    "lat": 57.67058999999999,
    "lng": -2.497849,
    "name": "Macduff"
  },
  {
    "lat": 57.67900110000001,
    "lng": -2.3238276,
    "name": "Crovie"
  },
  {
    "lat": 57.513218,
    "lng": -1.789512,
    "name": "Buchanhaven"
  },
  {
    "lat": 57.470373,
    "lng": -1.779524,
    "name": "Boddam"
  },
  {
    "lat": 57.34591599999999,
    "lng": -1.938273,
    "name": "Collieston"
  },
  {
    "lat": 57.149717,
    "lng": -2.094278,
    "name": "Aberdeen"
  },
  {
    "lat": 56.96366099999999,
    "lng": -2.209288,
    "name": "Stonehaven"
  },
  {
    "lat": 56.894097,
    "lng": -2.21828,
    "name": "Catterline"
  },
  {
    "lat": 56.706922,
    "lng": -2.466115,
    "name": "Montrose"
  },
  {
    "lat": 24.7711945,
    "lng": 73.67128009999999,
    "name": "Usan"
  },
  {
    "lat": 56.559107,
    "lng": -2.591543,
    "name": "Arbroath"
  },
  {
    "lat": 56.462018,
    "lng": -2.970721,
    "name": "Dundee"
  },
  {
    "lat": -31.9535132,
    "lng": 115.8570471,
    "name": "Perth"
  },
  {
    "lat": 56.423663,
    "lng": -2.981068,
    "name": "Wormit"
  },
  {
    "lat": 56.447996,
    "lng": -2.880912,
    "name": "Tayport"
  },
  {
    "lat": 31.1526506,
    "lng": -81.3991162,
    "name": "St Andrews"
  },
  {
    "lat": 45.0925202,
    "lng": -84.326014,
    "name": "Crall"
  },
  {
    "lat": 56.214,
    "lng": -2.732285,
    "name": "Pittenweem"
  },
  {
    "lat": 56.204812,
    "lng": -2.765718,
    "name": "St Monans"
  },
  {
    "lat": 56.190472,
    "lng": -2.822051,
    "name": "Elie"
  },
  {
    "lat": 56.1168249,
    "lng": -3.158137,
    "name": "Kirkcaldy"
  },
  {
    "lat": 56.058809,
    "lng": -3.233915,
    "name": "Burntisland"
  },
  {
    "lat": 56.054679,
    "lng": -3.30273,
    "name": "Aberdour"
  },
  {
    "lat": 56.03490799999999,
    "lng": -3.35056,
    "name": "Dalgerty Bay"
  },
  {
    "lat": 55.99000299999999,
    "lng": -3.399045,
    "name": "South Queensferry"
  },
  {
    "lat": 55.975117,
    "lng": -3.166243,
    "name": "Leith"
  },
  {
    "lat": 56.058363,
    "lng": -2.719646,
    "name": "North Berwick"
  },
  {
    "lat": 37.785941,
    "lng": -122.4907,
    "name": "Seacliff"
  },
  {
    "lat": 56.002087,
    "lng": -2.516737,
    "name": "Dunbar"
  },
  {
    "lat": 55.869058,
    "lng": -2.091068,
    "name": "Eyemouth"
  },
  {
    "lat": 55.770242,
    "lng": -2.005395,
    "name": "Berwick-upon-Tweed"
  },
  {
    "lat": 47.80889,
    "lng": -114.2275,
    "name": "Lindesfarne"
  },
  {
    "lat": 55.581148,
    "lng": -1.651159,
    "name": "Seahouses"
  },
  {
    "lat": 55.3902223,
    "lng": -1.6129047,
    "name": "Alnmouth"
  },
  {
    "lat": 55.331461,
    "lng": -1.585261,
    "name": "Amble"
  },
  {
    "lat": 54.486335,
    "lng": -0.613347,
    "name": "Whitby"
  },
  {
    "lat": 54.283113,
    "lng": -0.399752,
    "name": "Scarborough"
  },
  {
    "lat": 53.567471,
    "lng": -0.080784,
    "name": "Grimsby"
  },
  {
    "lat": 52.7516798,
    "lng": 0.4022963000000001,
    "name": "King’s Lyn"
  },
  {
    "lat": 52.96076499999999,
    "lng": 0.580857,
    "name": "Thornham"
  },
  {
    "lat": 52.953685,
    "lng": 1.014356,
    "name": "Blakney"
  },
  {
    "lat": 52.48113799999999,
    "lng": 1.753449,
    "name": "Lowestoft"
  },
  {
    "lat": 52.32562799999999,
    "lng": 1.680181,
    "name": "Southwold"
  },
  {
    "lat": 52.1432373,
    "lng": 1.5994146,
    "name": "Slaughden Quay"
  },
  {
    "lat": 43.9014167,
    "lng": -72.1417216,
    "name": "Orford"
  },
  {
    "lat": 52.012223,
    "lng": 1.417586,
    "name": "Bawdsey"
  },
  {
    "lat": 51.961726,
    "lng": 1.351255,
    "name": "Felixstowe"
  },
  {
    "lat": 18.1959208,
    "lng": -77.8210036,
    "name": "Ipswitch"
  },
  {
    "lat": 51.934731,
    "lng": 1.260297,
    "name": "Harwich"
  },
  {
    "lat": 51.816142,
    "lng": 1.021399,
    "name": "Brightlingsea"
  },
  {
    "lat": 51.857997,
    "lng": 0.9652740000000001,
    "name": "Wivenhoe"
  },
  {
    "lat": 51.73180499999999,
    "lng": 0.6714479999999999,
    "name": "Maldon"
  },
  {
    "lat": 51.463024,
    "lng": 0.360498,
    "name": "Tilbury"
  },
  {
    "lat": 51.5073509,
    "lng": -0.1277583,
    "name": "London"
  },
  {
    "lat": 50.0613699,
    "name": "Land's end",
    "lng": -5.7247039
  },
  {
    "lat": 50.0500257,
    "name": "Logan Rock",
    "lng": -5.6675096
  },
  {
    "lat": 29.8422122,
    "name": "Hoe Point",
    "lng": -95.4295872
  },
  {
    "lat": 49.9663293,
    "name": "Predannack Head",
    "lng": -5.2093352
  },
  {
    "lat": 37.5733807,
    "name": "Lizard Point",
    "lng": -88.05752849999999
  },
  {
    "lat": 41.324288,
    "name": "Bass Point",
    "lng": -70.0355705
  },
  {
    "lat": 50.09999999999999,
    "name": "Rosemullion Head",
    "lng": -5.066666700000001
  },
  {
    "lat": 50.15,
    "name": "Porthmellin Head",
    "lng": -4.9833333
  },
  {
    "lat": 46.6758333,
    "name": "Greeb Point",
    "lng": -115.4291666
  },
  {
    "lat": 50.2208263,
    "name": "Dodman Point",
    "lng": -4.8022015
  },
  {
    "lat": 38.4640117,
    "name": "Chapel Point",
    "lng": -77.0291415
  },
  {
    "lat": 50.2166667,
    "name": "Bolt Head",
    "lng": -3.7833333
  },
  {
    "lat": 35.9213691,
    "name": "Start Point",
    "lng": -78.9309418
  },
  {
    "lat": 50.3618918,
    "name": "Scabbacombe Head",
    "lng": -3.5309917
  },
  {
    "lat": 43.6027777,
    "name": "Bell Rock",
    "lng": -113.9825
  },
  {
    "lat": -43.5583333,
    "name": "Shag Rock",
    "lng": 172.75
  },
  {
    "lat": 50.39606389999999,
    "name": "Langstone Rocks",
    "lng": -4.1476818
  },
  {
    "lat": 45.697342,
    "name": "Straight Point",
    "lng": -121.395906
  },
  {
    "lat": 30.0524332,
    "name": "Humble Point",
    "lng": -95.1585295
  },
  {
    "lat": 50.7262536,
    "name": "Golden Cap",
    "lng": -2.8428814
  },
  {
    "lat": 50.51415979999999,
    "name": "Portland Bill",
    "lng": -2.4563772
  },
  {
    "lat": 50.5530566,
    "name": "St Albans Head",
    "lng": -2.4737507
  },
  {
    "lat": 50.59999999999999,
    "name": "Durlston Head",
    "lng": -1.95
  },
  {
    "lat": 78.5076613,
    "name": "The Foreland",
    "lng": 11.306893
  },
  {
    "lat": 50.7333333,
    "name": "Selsey Bill",
    "lng": -0.7833333
  },
  {
    "lat": 50.7707802,
    "name": "Seaford Head",
    "lng": 0.1178972
  },
  {
    "lat": 50.7440267,
    "name": "Beachy Head",
    "lng": 0.2373869
  },
  {
    "lat": 38.6020119,
    "name": "Langney Point",
    "lng": -97.97413
  },
  {
    "lat": 50.919325,
    "name": "Dungeness",
    "lng": 0.9652799999999999
  },
  {
    "lat": 51.38812960000001,
    "name": "Foreness",
    "lng": 1.4341991
  },
  {
    "lat": 50.2,
    "name": "Gurnard's Head",
    "lng": -5.6
  },
  {
    "lat": 50.2,
    "name": "Zennor Head",
    "lng": -5.575
  },
  {
    "lat": 50.2166667,
    "name": "St Ives Head",
    "lng": -5.4833333
  },
  {
    "lat": 50.3166667,
    "name": "St Agnes Head",
    "lng": -5.2333333
  },
  {
    "lat": 32.5727377,
    "name": "Beryls Point",
    "lng": -117.0148607
  },
  {
    "lat": 50.5,
    "name": "Bedruthan's Steps",
    "lng": -5.0333333
  },
  {
    "lat": 52.0333333,
    "name": "Dinas Head",
    "lng": -4.899999999999999
  },
  {
    "lat": 50.6666667,
    "name": "Tintagel Head",
    "lng": -4.75
  },
  {
    "lat": 35.9208513,
    "name": "Dizzard Point",
    "lng": -92.0893064
  },
  {
    "lat": 53.2755555,
    "name": "Steeple Point",
    "lng": -168.3458333
  },
  {
    "lat": 43.0746358,
    "name": "Hartland Point",
    "lng": -88.3785132
  },
  {
    "lat": 43.9107659,
    "name": "Monte Point",
    "lng": 10.6779139
  },
  {
    "lat": 51.245364,
    "name": "Foreland Point",
    "lng": -3.7866275
  },
  {
    "lat": -42.8892992,
    "name": "Battery Point",
    "lng": 147.3303118
  },
  {
    "lat": 51.44083329999999,
    "name": "Penarth Head",
    "lng": -3.1661111
  },
  {
    "lat": 29.7678601,
    "name": "Porthcawl Point",
    "lng": -95.8009021
  },
  {
    "lat": 51.691479,
    "name": "Mumbles Head",
    "lng": -4.2733148
  },
  {
    "lat": 51.565,
    "name": "Worms Head",
    "lng": -4.325277799999999
  },
  {
    "lat": 51.6091667,
    "name": "Burry Holms",
    "lng": -4.3127778
  },
  {
    "lat": 51.6111111,
    "name": "Stackpole Head",
    "lng": -4.8961111
  },
  {
    "lat": 51.599293,
    "name": "St Govans Head",
    "lng": -4.937196
  },
  {
    "lat": 54.09999999999999,
    "name": "St Anns Head",
    "lng": -4.55
  },
  {
    "lat": 46.8842453,
    "name": "Rickets Head",
    "lng": -96.765098
  },
  {
    "lat": 51.9041667,
    "name": "St Davids Head",
    "lng": -5.3122222
  },
  {
    "lat": 52.01666669999999,
    "name": "Strumble Head",
    "lng": -5.066666700000001
  },
  {
    "lat": 22.271549,
    "name": "Harlech Point",
    "lng": 114.144597
  },
  {
    "lat": 53.3666667,
    "name": "Ormes Head",
    "lng": -3.9166667
  },
  {
    "lat": 54.5,
    "name": "St Bees Head",
    "lng": -3.6333333
  },
  {
    "lat": 54.76666669999999,
    "name": "Abbey Head",
    "lng": -3.95
  },
  {
    "lat": 54.66666670000001,
    "name": "Burrow Head",
    "lng": -4.399999999999999
  },
  {
    "lat": 28.98939619999999,
    "name": "Point of Leg",
    "lng": -80.9193404
  },
  {
    "lat": 41.751499,
    "name": "Money Head",
    "lng": -69.953627
  },
  {
    "lat": 55.767233,
    "name": "Skipness Point",
    "lng": -5.34652
  },
  {
    "lat": 45.7467818,
    "name": "Point of Knap",
    "lng": -122.7581558
  },
  {
    "lat": 36.1963108,
    "name": "Lussa Point",
    "lng": -115.2895412
  },
  {
    "lat": 56.725702,
    "name": "Ardnamurchan Point",
    "lng": -6.225986
  },
  {
    "lat": 14.5493735,
    "name": "Sanna Point",
    "lng": 44.39421240000001
  },
  {
    "lat": 35.0523852,
    "name": "Ockle Point",
    "lng": -76.6410406
  },
  {
    "lat": 40.1446773,
    "name": "Greenstone Point",
    "lng": -83.14303199999999
  },
  {
    "lat": 57.93333329999999,
    "name": "Cailleach Head",
    "lng": -5.399999999999999
  },
  {
    "lat": 58.6254399,
    "name": "Cape Wrath",
    "lng": -4.9990834
  },
  {
    "lat": 58.6166667,
    "name": "Faraid Head",
    "lng": -4.7666667
  },
  {
    "lat": 58.56666670000001,
    "name": "Whiten Head",
    "lng": -4.600000000000001
  },
  {
    "lat": 35.6911891,
    "name": "Farr Point",
    "lng": -78.63152889999999
  },
  {
    "lat": 30.466244,
    "name": "Kirtomy Point",
    "lng": -97.6373478
  },
  {
    "lat": 58.598586,
    "name": "Strathy Point",
    "lng": -4.01782
  },
  {
    "lat": 58.65000000000001,
    "name": "Briga Head",
    "lng": -3.4
  },
  {
    "lat": 58.1333333,
    "name": "Ord of Caithness",
    "lng": -3.6
  },
  {
    "lat": 57.8650937,
    "name": "Tarbat Ness",
    "lng": -3.776519
  },
  {
    "lat": 57.5806817,
    "name": "Chanonry Point",
    "lng": -4.110376500000001
  },
  {
    "lat": 57.7,
    "name": "Kinnaird Head",
    "lng": -2
  },
  {
    "lat": 57.6166667,
    "name": "Rattray Head",
    "lng": -1.8166667
  },
  {
    "lat": 57.50812299999999,
    "name": "Peterhead",
    "lng": -1.784066
  },
  {
    "lat": 26.190525,
    "name": "Doonie Point",
    "lng": -98.009706
  },
  {
    "lat": 35.3037122,
    "name": "Garron Point",
    "lng": -80.98808149999999
  },
  {
    "lat": 57.1068237,
    "name": "Scurdie Ness",
    "lng": -2.0828465
  },
  {
    "lat": 30.4888836,
    "name": "Boddin Point",
    "lng": -84.2423343
  },
  {
    "lat": 39.576115,
    "name": "The Deils Head",
    "lng": -105.1197144
  },
  {
    "lat": 56.4666667,
    "name": "Buddon Ness",
    "lng": -2.7166667
  },
  {
    "lat": 38.73746999999999,
    "name": "Fife Ness",
    "lng": -77.56243099999999
  },
  {
    "lat": 38.4640117,
    "name": "Chapel Point",
    "lng": -77.0291415
  },
  {
    "lat": 38.7581058,
    "name": "Castle Point",
    "lng": -90.2481674
  },
  {
    "lat": 45.3888174,
    "name": "Beacon Point",
    "lng": -111.3591254
  },
  {
    "lat": 28.2128788,
    "name": "Souter Point",
    "lng": -82.519545
  },
  {
    "lat": 31.351284,
    "name": "The Headland",
    "lng": -85.3421559
  },
  {
    "lat": 53.57796159999999,
    "name": "Spurn Head",
    "lng": 0.1162126
  },
  {
    "lat": 38.4640117,
    "name": "Chapel Point",
    "lng": -77.0291415
  },
  {
    "lat": 52.0833333,
    "name": "Orford Ness",
    "lng": 1.5666667
  },
  {
    "lat": 26.2123124,
    "name": "The Naze",
    "lng": 127.6791568
  },
  {
    "lat": 51.6421502,
    "name": "Holliwell Point",
    "lng": -0.404816
  },
  {
    "lat": 51.5849007,
    "name": "Foulness Point",
    "lng": 0.9379985999999999
  },
  {
    "lat": 51.517083,
    "name": "Canvey Point",
    "lng": 0.578411
  }



  {
    "lat": 50.662697,
    "name": "The Needles",
    "lng": -1.589327
  },
    {
    "lat": 50.572935,
    "name": "St Catherine’s Point",
    "lng": -1.296387
  },
    {
    "lat": 50.686616,
    "name": "Foreland",
    "lng": -1.063614 
  },


    {
    "lat": 51.157943,
    "name": "Shutter Point",
    "lng": -4.671507 
  },
     {
    "lat": 53.309441,
    "name": "Holyhead",
    "lng": -4.633038  
  },
    {
    "lat": 54.152337,
    "name": "Douglas",
    "lng": -4.486123 
  },
    {
    "lat": 54.415752,
    "name": "Point of Ayre",
    "lng": -4.368111 
  },
    {
    "lat": 55.681117,
    "name": "Portnahaven",
    "lng": -6.507585 
  },
     {
    "lat": 56.503802,
    "name": "Scarinish",
    "lng": -6.808511  
  },
     {
    "lat": 57.064863,
    "name": "Armadale",
    "lng":  -5.901249  
  },
    {
    "lat": 58.190071,
    "name": "Stornoway",
    "lng": -6.333618  
  },
     {
    "lat":58.520058,
    "name": "Ness",
    "lng": -6.264954 
  },
    {
    "lat": 58.512886,
    "name": "Pont Nis",
    "lng": -6.256714
  },
    {
    "lat": 58.943456,
    "name": "Stromness",
    "lng": -3.326111  
  },
     {
    "lat": 59.004329,
    "name": "Kirkwell",
    "lng":  -2.782288
  },
    {
    "lat": 59.848092,
    "name": "Sumburghhead",
    "lng": -1.282654 
  },
    {
    "lat": 60.869488,
    "name": "Herma Ness",
    "lng": -0.854187  
  },
    {
    "lat":  57.807342,
    "name": "St Kilda",
    "lng": -8.570366 
  },
    {
    "lat": 52.232426,
    "name": "Rosslare",
    "lng": -6.339111 
  },
    {
    "lat": 55.212867,
    "name": "Portrush",
    "lng": -6.656342 
  },
    {
    "lat": 54.860307,
    "name": "Larne",
    "lng": -5.802155 
  },
    {
    "lat": 55.380317,
    "name": "Malin Head",
    "lng":-7.388306 
  },
    {
    "lat":  51.782869,
    "name": "Roches Point",
    "lng": -8.276138
  },
    {
    "lat": 51.450027,
    "name": "Mizen Head ( southerly point)",
    "lng": -9.819245
  },
    {
    "lat": 53.800321,
    "name": "Westport",
    "lng": -9.562569 
  },
    {
    "lat": 53.260028,
    "name": "Galway",
    "lng": -9.057541
  },
      {
    "lat": 54.308056,
    "name": "Ceann Iorrais",
    "lng":  -9.997222 
  },


]