[{"name": "Gwennap Head", "lat": 50.0361111, "lng": -5.6847222}, {"name": "Logan Rock", "lat": 51.9979092, "lng": -0.7848094999999999}, {"name": "Penlee Point", "lat": 50.2337475, "lng": -5.068815}, {"name": "Rinsey Head", "lat": 50.09999999999999, "lng": -5.3666667}, {"name": "Hoe Point", "lat": 50.2171753, "lng": -5.0337649}, {"name": "Trewavas Head", "lat": 50.09999999999999, "lng": -5.3583333}, {"name": "Predannack Head", "lat": 49.9663293, "lng": -5.2093352}, {"name": "Vellan Head", "lat": 49.9833333, "lng": -5.25}, {"name": "Lizard Head", "lat": 50.8149256, "lng": -0.5230516}, {"name": "Lizard Point", "lat": 49.958229, "lng": -5.206558999999999}, {"name": "Bass Point", "lat": 49.9637568, "lng": -5.1877669}, {"name": "Black Head", "lat": 54.8666667, "lng": -5.149999999999999}, {"name": "Nare Point", "lat": 50.0831048, "lng": -5.0996492}, {"name": "Toll Point", "lat": 52.65264519999999, "lng": -1.9199686}, {"name": "Rosemullion Head", "lat": 50.09999999999999, "lng": -5.066666700000001}, {"name": "Pendinnis Point", "lat": 50.14469099999999, "lng": -5.043877}, {"name": "Porthmellin Head", "lat": 50.15, "lng": -4.9833333}, {"name": "Greeb Point", "lat": 50.2037292, "lng": -5.0526996}, {"name": "Dodman Point", "lat": 50.2208263, "lng": -4.8022015}, {"name": "Gorran Haven", "lat": 50.24184529999999, "lng": -4.7940786}, {"name": "Chapel Point", "lat": 50.7253177, "lng": -1.9569222}, {"name": "Black Head", "lat": 54.8666667, "lng": -5.149999999999999}, {"name": "Nare Head", "lat": 50.2, "lng": -4.9166667}, {"name": "Gribbon Head", "lat": 50.3166667, "lng": -4.6666667}, {"name": "Pencarrow Head", "lat": 50.3333333, "lng": -4.600000000000001}, {"name": "Rame Head", "lat": 50.3166667, "lng": -4.2166667}, {"name": "Penlee Point", "lat": 50.2337475, "lng": -5.068815}, {"name": "Stoke Point", "lat": 51.583506, "lng": -0.1173371}, {"name": "Beacon Point", "lat": 54.08467220000001, "lng": -3.1711743}, {"name": "Bolt Head", "lat": 50.2166667, "lng": -3.7833333}, {"name": "Start Point", "lat": 50.225246, "lng": -3.651231}, {"name": "Scabbacombe Head", "lat": 50.3618918, "lng": -3.5309917}, {"name": "Berry Head", "lat": 50.402047, "lng": -3.490313}, {"name": "Hopes Nose", "lat": 50.4666667, "lng": -3.4833333}, {"name": "Watcombe Head", "lat": 50.4779693, "lng": -3.537469}, {"name": "Bell Rock", "lat": 56.4166667, "lng": -2.3833333}, {"name": "Shag Rock", "lat": 50.22499999999999, "lng": -4.875}, {"name": "Langstone Rocks", "lat": 50.39606389999999, "lng": -4.1476818}, {"name": "Golden Cap", "lat": 50.7262536, "lng": -2.8428814}, {"name": "Portland Bill", "lat": 50.51415979999999, "lng": -2.4563772}, {"name": "Redcliff Point", "lat": 51.44979259999999, "lng": -2.5888613}, {"name": "St Albans Head", "lat": 50.55, "lng": -2.05}, {"name": "Durlston Head", "lat": 50.59999999999999, "lng": -1.95}, {"name": "Ballard Point", "lat": 50.90354199999999, "lng": 0.0742922}, {"name": "The Foreland", "lat": 51.25, "lng": -3.7833333}, {"name": "Selsey Bill", "lat": 50.7333333, "lng": -0.7833333}, {"name": "Seaford Head", "lat": 52.9805554, "lng": -0.2972725}, {"name": "Beachy Head", "lat": 50.73995, "lng": 0.241898}, {"name": "Langney Point", "lat": 51.6421502, "lng": -0.404816}, {"name": "Dungeness", "lat": 50.919325, "lng": 0.9652799999999999}, {"name": "Foreness", "lat": 51.38812960000001, "lng": 1.4341991}, {"name": "Shell Ness", "lat": 53.2942439, "lng": -3.0426154}, {"name": "Warden Point", "lat": 51.3428979, "lng": 1.0164978}]