[

{"lat": 50.0613699, "name": "Land's end", "lng": -5.7247039},

{"lat": 51.9979092, "name": "Logan Rock", "lng": -0.7848094999999999}, {"lat": 50.2337475, "name": "Penlee Point", "lng": -5.068815}, {"lat": 29.8422122, "name": "Hoe Point", "lng": -95.4295872}, {"lat": 50.09999999999999, "name": "Trewavas Head", "lng": -5.3583333}, {"lat": 49.9663293, "name": "Predannack Head", "lng": -5.2093352}, {"lat": 37.5733807, "name": "Lizard Point", "lng": -88.05752849999999}, {"lat": 41.324288, "name": "Bass Point", "lng": -70.0355705}, {"lat": 50.09999999999999, "name": "Rosemullion Head", "lng": -5.066666700000001}, {"lat": 48.00638379999999, "name": "Zone Point", "lng": -2.0858325}, {"lat": 50.15, "name": "Porthmellin Head", "lng": -4.9833333}, {"lat": 46.6758333, "name": "Greeb Point", "lng": -115.4291666}, {"lat": 50.2208263, "name": "Dodman Point", "lng": -4.8022015}, {"lat": 38.4640117, "name": "Chapel Point", "lng": -77.0291415}, {"lat": 50.2, "name": "Nare Head", "lng": -4.9166667}, {"lat": 50.2337475, "name": "Penlee Point", "lng": -5.068815}, {"lat": 50.2166667, "name": "Bolt Head", "lng": -3.7833333}, {"lat": 35.9213691, "name": "Start Point", "lng": -78.9309418}, {"lat": 50.3618918, "name": "Scabbacombe Head", "lng": -3.5309917}, {"lat": 43.6027777, "name": "Bell Rock", "lng": -113.9825}, {"lat": -43.5583333, "name": "Shag Rock", "lng": 172.75}, {"lat": 50.39606389999999, "name": "Langstone Rocks", "lng": -4.1476818}, {"lat": 45.697342, "name": "Straight Point", "lng": -121.395906}, {"lat": 30.0524332, "name": "Humble Point", "lng": -95.1585295}, {"lat": 50.7262536, "name": "Golden Cap", "lng": -2.8428814}, {"lat": 50.51415979999999, "name": "Portland Bill", "lng": -2.4563772}, {"lat": 50.55, "name": "St Albans Head", "lng": -2.05}, {"lat": 50.59999999999999, "name": "Durlston Head", "lng": -1.95}, {"lat": 78.5076613, "name": "The Foreland", "lng": 11.306893}, {"lat": 50.7333333, "name": "Selsey Bill", "lng": -0.7833333}, {"lat": 50.7707802, "name": "Seaford Head", "lng": 0.1178972}, {"lat": 50.7440267, "name": "Beachy Head", "lng": 0.2373869}, {"lat": 38.6020119, "name": "Langney Point", "lng": -97.97413}, {"lat": 50.919325, "name": "Dungeness", "lng": 0.9652799999999999}, {"lat": 51.38812960000001, "name": "Foreness", "lng": 1.4341991}, {"lat": 50.2, "name": "Gurnard's Head", "lng": -5.6}, {"lat": 50.2, "name": "Zennor Head", "lng": -5.575}, {"lat": 50.2166667, "name": "St Ives Head", "lng": -5.4833333}, {"lat": 50.3166667, "name": "St Agnes Head", "lng": -5.2333333}, {"lat": 50.4166667, "name": "Towan Head", "lng": -5.1}, {"lat": 32.5727377, "name": "Beryls Point", "lng": -117.0148607}, {"lat": 50.5, "name": "Bedruthan's Steps", "lng": -5.0333333}, {"lat": 54.94616449999999, "name": "Park Head", "lng": -2.7381327}, {"lat": 52.0333333, "name": "Dinas Head", "lng": -4.899999999999999}, {"lat": 51.5291198, "name": "Trevose Head", "lng": -0.6182472}, {"lat": 50.6666667, "name": "Tintagel Head", "lng": -4.75}, {"lat": 35.9208513, "name": "Dizzard Point", "lng": -92.0893064}, {"lat": 53.2755555, "name": "Steeple Point", "lng": -168.3458333}, {"lat": 43.0746358, "name": "Hartland Point", "lng": -88.3785132}, {"lat": 43.9107659, "name": "Monte Point", "lng": 10.6779139}, {"lat": 51.245364, "name": "Foreland Point", "lng": -3.7866275}, {"lat": 53.8427388, "name": "Hurlstone Point", "lng": -6.5612447}, {"lat": -42.8892992, "name": "Battery Point", "lng": 147.3303118}, {"lat": 51.44083329999999, "name": "Penarth Head", "lng": -3.1661111}, {"lat": 29.7678601, "name": "Porthcawl Point", "lng": -95.8009021}, {"lat": 51.691479, "name": "Mumbles Head", "lng": -4.2733148}, {"lat": 51.565, "name": "Worms Head", "lng": -4.325277799999999}, {"lat": 51.6091667, "name": "Burry Holms", "lng": -4.3127778}, {"lat": 51.6961111, "name": "Monkstone Point", "lng": -4.6758333}, {"lat": 51.6111111, "name": "Stackpole Head", "lng": -4.8961111}, {"lat": 51.599293, "name": "St Govans Head", "lng": -4.937196}, {"lat": 54.09999999999999, "name": "St Anns Head", "lng": -4.55}, {"lat": 46.8842453, "name": "Rickets Head", "lng": -96.765098}, {"lat": 51.9041667, "name": "St Davids Head", "lng": -5.3122222}, {"lat": 52.01666669999999, "name": "Strumble Head", "lng": -5.066666700000001}, {"lat": 22.271549, "name": "Harlech Point", "lng": 114.144597}, {"lat": 53.3666667, "name": "Ormes Head", "lng": -3.9166667}, {"lat": 54.5, "name": "St Bees Head", "lng": -3.6333333}, {"lat": 54.76666669999999, "name": "Abbey Head", "lng": -3.95}, {"lat": 54.66666670000001, "name": "Burrow Head", "lng": -4.399999999999999}, {"lat": 28.98939619999999, "name": "Point of Leg", "lng": -80.9193404}, {"lat": 41.751499, "name": "Money Head", "lng": -69.953627}, {"lat": 55.767233, "name": "Skipness Point", "lng": -5.34652}, {"lat": 45.7467818, "name": "Point of Knap", "lng": -122.7581558}, {"lat": 36.1963108, "name": "Lussa Point", "lng": -115.2895412}, {"lat": 56.725702, "name": "Ardnamurchan Point", "lng": -6.225986}, {"lat": 14.5493735, "name": "Sanna Point", "lng": 44.39421240000001}, {"lat": 35.0523852, "name": "Ockle Point", "lng": -76.6410406}, {"lat": 40.1446773, "name": "Greenstone Point", "lng": -83.14303199999999}, {"lat": 57.93333329999999, "name": "Cailleach Head", "lng": -5.399999999999999}, {"lat": 58.6254399, "name": "Cape Wrath", "lng": -4.9990834}, {"lat": 58.6166667, "name": "Faraid Head", "lng": -4.7666667}, {"lat": 58.56666670000001, "name": "Whiten Head", "lng": -4.600000000000001}, {"lat": 35.6911891, "name": "Farr Point", "lng": -78.63152889999999}, {"lat": 30.466244, "name": "Kirtomy Point", "lng": -97.6373478}, {"lat": 54.00685559999999, "name": "Ardmore Point", "lng": -6.3685382}, {"lat": 58.598586, "name": "Strathy Point", "lng": -4.01782}, {"lat": 58.65000000000001, "name": "Briga Head", "lng": -3.4}, {"lat": 58.6703369, "name": "Dunnet Head", "lng": -3.3766013},{"lat": 58.65000000000001, "name": "Duncansby Head", "lng": -3.0333333}, {"lat": 58.1333333, "name": "Ord of Caithness", "lng": -3.6}, {"lat": 57.8650937, "name": "Tarbat Ness", "lng": -3.776519}, {"lat": 57.5806817, "name": "Chanonry Point", "lng": -4.110376500000001}, {"lat": 57.7, "name": "Kinnaird Head", "lng": -2}, {"lat": 57.6166667, "name": "Rattray Head", "lng": -1.8166667}, {"lat": 57.50812299999999, "name": "Peterhead", "lng": -1.784066}, {"lat": 55.42882299999999, "name": "The Skares", "lng": -4.325131}, {"lat": 26.190525, "name": "Doonie Point", "lng": -98.009706}, {"lat": 35.3037122, "name": "Garron Point", "lng": -80.98808149999999}, {"lat": 57.4721643, "name": "Milton Ness", "lng": -4.2324753}, {"lat": 57.1068237, "name": "Scurdie Ness", "lng": -2.0828465}, {"lat": 30.4888836, "name": "Boddin Point", "lng": -84.2423343}, {"lat": 39.576115, "name": "The Deils Head", "lng": -105.1197144}, {"lat": 56.4666667, "name": "Buddon Ness", "lng": -2.7166667}, {"lat": 38.73746999999999, "name": "Fife Ness", "lng": -77.56243099999999}, {"lat": 38.4640117, "name": "Chapel Point", "lng": -77.0291415}, {"lat": 55.8994858, "name": "St Abbs Head", "lng": -2.1317015}, {"lat": 38.7581058, "name": "Castle Point", "lng": -90.2481674}, {"lat": 45.3888174, "name": "Beacon Point", "lng": -111.3591254}, {"lat": 28.2128788, "name": "Souter Point", "lng": -82.519545}, {"lat": 31.351284, "name": "The Headland", "lng": -85.3421559},{"lat": 53.57796159999999, "name": "Spurn Head", "lng": 0.1162126}, {"lat": 38.4640117, "name": "Chapel Point", "lng": -77.0291415},  {"lat": 52.0833333, "name": "Orford Ness", "lng": 1.5666667}, {"lat": 26.2123124, "name": "The Naze", "lng": 127.6791568}, {"lat": 51.7980361, "name": "Colne Point", "lng": 1.0234109},{"lat": 51.6421502, "name": "Holliwell Point", "lng": -0.404816}, {"lat": 51.5849007, "name": "Foulness Point", "lng": 0.9379985999999999}, {"lat": 51.517083, "name": "Canvey Point", "lng": 0.578411}]